17,232,37,13,05,028,*70
$GPGSV,4,4,14,12,04,336,,08,02,182,*7C1,N,27610.729,K,A*2E
$GPGSA,M,1,12,32,24,03,,,,,,,,,1.1,0.5,1.0*3F
$GPGSV,3,1,11,19,70,140,30,17,46,108,,06,43,192,33,12,38,291,38*7D
$GPGSV,3,2,11,03,35,062,38,22,20,153,,24,19,247,29,32,15,336,47*73
$GPGSV,3,3,11,11,13,208,34,25,08,312,44,14,00,148,*41
$GPRMC,152106.00,A,6755.2242642,N,08856.4135098,E,14908.598,338.5,111223,0.0,E,A*3D
$GPVTG,338.508,T,338.508,M,14908.598,N,27610.724,K,A*20
$GPGSA,M,1,12,32,24,25,03,,,,,,,,1.1,0.5,1.0*38
$GPGSV,3,1,11,19,70,140,31,17,46,108,,06,43,192,33,12,38,291,38*7C
$GPGSV,3,2,11,03,35,062,38,22,20,153,,24,19,247,30,32,15,336,47*7B
$GPGSV,3,3,11,11,13,208,34,25,08,312,44,14,00,148,*41
$GPRMC,152107.00,A,6758.7666005,N,08852.6966701,E,14908.635,338.5,111223,0.0,E,A*38
$GPVTG,338.459,T,338.459,M,14908.635,N,27610.793,K,A*28
$GPGSA,M,1,12,32,24,25,03,,,,,,,,1.1,0.5,1.0*38
$GPGSV,3,1,11,19,70,140,31,17,46,108,,06,43,192,33,12,38,291,38*7C
$GPGSV,3,2,11,03,35,062,37,22,20,153,,24,19,247,29,32,15,336,47*7C
$GPGSV,3,3,11,11,13,208,34,25,08,312,44,14,00,148,*41
$GPRMC,152108.00,A,6802.3076680,N,08848.9616399,E,14908.612,338.4,111223,0.0,E,A*32
$GPVTG,338.409,T,338.409,M,14908.612,N,27610.750,K,A*22
$GPGSA,M,1,12,32,24,25,03,,,,,,,,1.1,0.5,1.0*38
$GPGSV,3,1,11,19,70,140,30,17,46,108,,06,43,192,33,12,38,291,38*7D
$GPGSV,3,2,11,03,35,062,37,22,20,153,,24,19,247,30,32,15,336,46*75
$GPGSV,3,3,11,11,13,208,34,25,08,312,44,14,00,148,*41
$GPRMC,152109.00,A,6805.8477065,N,08845.2088889,E,14908.649,338.4,111223,0.0,E,A*34
$GPVTG,338.358,T,338.358,M,14908.649,N,27610.818,K,A*2F
$GPGSA,M,1,12,32,24,25,03,,,,,,,,1.1,0.5,1.0*38
$GPGSV,3,1,11,19,70,140,31,17,46,108,,06,43,192,34,12,38,291,38*7B
$GPGSV,3,2,11,03,35,062,37,22,20,153,,24,19,247,29,32,15,336,47*7C
$GPGSV,3,3,11,11,13,208,34,25,08,312,44,14,00,148,*41
$GPRMC,152110.00,A,6809.3862045,N,08841.4385354,E,14908.560,338.3,111223,0.0,E,A*39
$GPVTG,338.308,T,338.308,M,14908.560,N,27610.653,K,A*26
$GPGSA,M,1,12,32,24,25,03,,,,,,,,1.1,0.5,1.0*38
$GPGSV,3,1,11,19,70,140,30,17,46,108,,06,43,192,34,12,38,291,38*7A
$GPGSV,3,2,11,03,35,062,37,22,20,153,,24,19,247,29,32,15,336,47*7C
$GPGSV,3,3,11,11,13,208,34,25,08,312,44,14,00,148,*41
$GPRMC,152111.00,A,6812.9235252,N,08837.6504102,E,14908.547,338.3,111223,0.0,E,A*3C
$GPVTG,338.257,T,338.257,M,14908.547,N,27610.629,K,A*2E
$GPGSA,M,1,12,32,24,25,03,,,,,,,,1.1,0.5,1.0*38
$GPGSV,3,1,11,19,70,140,31,17,46,108,,06,43,192,33,12,38,291,39*7D
$GPGSV,3,2,11,03,35,062,37,22,20,153,,24,19,247,29,32,15,336,47*7C
$GPGSV,3,3,11,11,13,208,33,25,08,312,44,14,00,148,*46
$GPRMC,152112.00,A,6816.4594999,N,08833.8438091,E,14908.478,338.2,111223,0.0,E,A*35
$GPVTG,338.206,T,338.206,M,14908.478,N,27610.502,K,A*29
$GPGSA,M,1,12,32,24,25,03,,,,,,,,1.1,0.5,1.0*38
$GPGSV,3,1,10,19,69,140,30,17,45,108,,06,42,191,33,12,39,290,38*75
$GPGSV,3,2,10,03,35,062,37,22,19,153,,24,19,246,30,32,15,335,47*7D
$GPGSV,3,3,10,11,13,207,33,25,09,311,44*72
$GPRMC,152113.00,A,6819.9942399,N,08830.0188514,E,14908.482,338.2,111223,0.0,E,A*33
$GPVTG,338.154,T,338.154,M,14908.482,N,27610.509,K,A*27
$GPGSA,M,1,12,32,24,25,03,,,,,,,,1.1,0.5,1.0*38
$GPGSV,3,1,10,19,69,140,30,17,45,108,,06,42,191,33,12,39,290,38*75
$GPGSV,3,2,10,03,35,062,37,22,19,153,,24,19,246,,32,15,335,47*7E
$GPGSV,3,3,10,11,13,207,33,25,09,311,44*72
$GPRMC,152114.00,A,6823.5277538,N,08826.1755401,E,14908.539,338.1,111223,0.0,E,A*36
$GPVTG,338.103,T,338.103,M,14908.539,N,27610.614,K,A*29
$GPGSA,M,1,12,32,25,03,,,,,,,,,1.1,0.5,1.0*3E
#RXSTATUSEVENTA,COM1,0,63.0,FINESTEERING,2292,141692.013,02000000,b967,16410;AUX4,0,SET,"<60% available SVs tracked well"*3d478d24
$GPGSV,3,1,10,19,69,140,30,17,45,108,,06,42,191,33,12,39,290,39*74
$GPGSV,3,2,10,03,35,062,37,22,19,153,,24,19,246,30,32,15,335,47*7D
$GPGSV,3,3,10,11,13,207,33,25,09,311,44*72
$GPRMC,152115.00,A,6827.0597604,N,08822.3131135,E,14908.533,338.1,111223,0.0,E,A*39
$GPVTG,338.050,T,338.050,M,14908.533,N,27610.604,K,A*22
$GPGSA,M,1,12,32,24,25,03,,,,,,,,1.1,0.5,0.9*30
$GPGSV,3,1,10,19,69,140,31,17,45,108,,06,42,191,33,12,39,290,39*75
$GPGSV,3,2,10,03,35,062,37,22,19,153,,24,19,246,30,32,15,335,47*7D
$GPGSV,3,3,10,11,13,207,33,25,09,311,44*72
$GPRMC,152116.00,A,6830.5905321,N,08818.4320566,E,14908.474,338.0,111223,0.0,E,A*31
$GPVTG,337.998,T,337.998,M,14908.474,N,27610.494,K,A*2B
$GPGSA,M,1,12,32,24,25,03,,,,,,,,1.1,0.5,0.9*30
$GPGSV,3,1,10,19,69,140,31,17,45,108,,06,42,191,33,12,39,290,39*75
$GPGSV,3,2,10,03,35,062,37,22,19,153,,24,19,246,31,32,15,335,47*7C
$GPGSV,3,3,10,11,13,207,33,25,09,311,44*72
$GPRMC,152117.00,A,6834.1199572,N,08814.5320431,E,14908.520,337.9,111223,0.0,E,A*35
$GPVTG,337.945,T,337.945,M,14908.520,N,27610.579,K,A*29
$GPGSA,M,1,12,32,24,25,03,,,,,,,,1.1,0.5,0.9*30
$GPGSV,3,1,10,19,69,140,31,17,45,108,,06,42,191,32,12,39,290,39*74
$GPGSV,3,2,10,03,35,062,37,22,19,153,,24,19,246,,32,15,335,47*7E
$GPGSV,3,3,10,11,13,207,33,25,09,311,44*72
$GPRMC,152118.00,A,6837.6481451,N,08810.6134784,E,14908.533,337.9,111223,0.0,E,A*3D
$GPVTG,337.892,T,337.892,M,14908.533,N,27610.603,K,A*25
$GPGSA,M,1,12,32,25,03,,,,,,,,,1.1,0.5,0.9*36
$GPGSV,3,1,10,19,69,140,31,17,45,108,,06,42,191,32,12,39,290,39*74
$GPGSV,3,2,10,03,35,062,37,22,19,153,,24,19,246,30,32,15,335,47*7D
$GPGSV,3,3,10,11,13,207,33,25,09,311,44*72
$GPRMC,152119.00,A,6841.1747503,N,08806.6749480,E,14908.482,337.8,111223,0.0,E,A*33
$GPVTG,337.839,T,337.839,M,14908.482,N,27610.509,K,A*27
$GPGSA,M,1,12,32,24,25,03,,,,,,,,1.1,0.5,0.9*30
$GPGSV,3,1,10,19,69,140,,17,45,108,,06,42,191,32,12,39,290,39*76
$GPGSV,3,2,10,03,35,062,37,22,19,153,,24,19,246,30,32,15,335,47*7D
$GPGSV,3,3,10,11,13,207,33,25,09,311,44*72
$GPRMC,152120.00,A,6844.7001544,N,08802.7174713,E,14908.470,337.8,111223,0.0,E,A*35
$GPVTG,337.785,T,337.785,M,14908.470,N,27610.487,K,A*2D
$GPGSA,M,1,12,32,24,25,03,,,,,,,,1.1,0.5,1.0*38
$GPGSV,3,1,10,19,69,140,,17,45,108,,06,42,191,32,12,39,290,39*76
$GPGSV,3,2,10,03,35,062,37,22,19,153,,24,19,246,,32,15,335,47*7E
$GPGSV,3,3,10,11,13,207,33,25,09,311,44*72
$GPRMC,152121.00,A,6848.2242135,N,08758.7403735,E,14908.436,337.7,111223,0.0,E,A*36
$GPVTG,337.731,T,337.731,M,14908.436,N,27610.423,K,A*21
$GPGSA,M,1,12,32,25,03,,,,,,,,,1.2,0.5,1.0*3D
$GPGSV,3,1,10,19,69,140,,17,45,108,,06,42,191,32,12,39,290,39*76
$GPGSV,3,2,10,03,35,062,37,22,19,153,,24,19,246,,32,15,335,47*7E
$GPGSV,3,3,10,11,13,207,32,25,09,311,44*73
$GPRMC,152122.00,A,6851.7468215,N,08754.7432581,E,14908.425,337.7,111223,0.0,E,A*36
$GPVTG,337.677,T,337.677,M,14908.425,N,27610.403,K,A*21
$GPGSA,M,1,12,32,25,03,,,,,,,,,1.2,0.5,1.0*3D
$GPGSV,3,1,10,19,68,140,,17,45,108,,06,42,190,31,12,39,289,39*7D
$GPGSV,3,2,10,03,35,062,37,24,19,245,,22,19,152,,32,16,334,46*7F
$GPGSV,3,3,10,11,12,206,32,25,09,311,44*73
$GPRMC,152123.00,A,6855.2677180,N,08750.7275106,E,14908.474,337.6,111223,0.0,E,A*3A
$GPVTG,337.622,T,337.622,M,14908.474,N,27610.494,K,A*2B
$GPGSA,M,1,12,32,25,03,,,,,,,,,1.1,0.5,1.0*3E
$GPGSV,3,1,10,19,68,140,,17,45,108,,06,42,190,31,12,39,289,39*7D
$GPGSV,3,2,10,03,35,062,37,24,19,245,,22,19,152,,32,16,334,46*7F
$GPGSV,3,3,10,11,12,206,33,25,09,311,43*75
$GPRMC,152124.00,A,6858.7877576,N,08746.6892593,E,14908.542,337.6,111223,0.0,E,A*3F
$GPVTG,337.567,T,337.567,M,14908.542,N,27610.621,K,A*23
$GPGSA,M,1,12,32,25,03,,,,,,,,,1.1,0.6,1.0*3D
$GPGSV,3,1,10,19,68,140,,17,45,108,,06,42,190,31,12,39,289,39*7D
$GPGSV,3,2,10,03,35,062,36,24,19,245,,22,19,152,,32,16,334,46*7E
$GPGSV,3,3,10,11,12,206,31,25,09,311,43*77
$GPRMC,152125.00,A,6902.3061570,N,08742.6321532,E,14908.531,337.5,111223,0.0,E,A*36
$GPVTG,337.512,T,337.512,M,14908.531,N,27610.599,K,A*27
$GPGSA,M,1,12,32,25,03,,,,,,,,,1.1,0.6,1.0*3D
$GPGSV,3,1,10,19,68,140,,17,45,108,,06,42,190,31,12,39,289,40*73
$GPGSV,3,2,10,03,35,062,36,24,19,245,,22,19,152,,32,16,334,46*7E
$GPGSV,3,3,10,11,12,206,32,25,09,311,44*73
$GPRMC,152126.00,A,6905.8230221,N,08738.5546144,E,14908.458,337.5,111223,0.0,E,A*3E
$GPVTG,337.456,T,337.456,M,14908.458,N,27610.464,K,A*2A
$GPGSA,M,1,12,32,25,03,,,,,,,,,1.1,0.5,1.0*3E
$GPGSV,3,1,10,19,68,140,,17,45,108,,06,42,190,30,12,39,289,39*7C
$GPGSV,3,2,10,03,35,062,36,24,19,245,,22,19,152,,32,16,334,47*7F
$GPGSV,3,3,10,11,12,206,32,25,09,311,44*73
$GPRMC,152127.00,A,6909.3384965,N,08734.4566344,E,14908.368,337.4,111223,0.0,E,A*35
$GPVTG,337.400,T,337.400,M,14908.368,N,27610.298,K,A*2B
$GPGSA,M,1,12,32,25,03,,,,,,,,,1.1,0.5,1.0*3E
$GPGSV,3,1,10,19,68,140,,17,45,108,,06,42,190,31,12,39,289,39*7D
$GPGSV,3,2,10,03,35,062,36,24,19,245,,22,19,152,,32,16,334,46*7E
$GPGSV,3,3,10,11,12,206,32,25,09,311,43*74
$GPRMC,152128.00,A,6912.8525772,N,08730.3376265,E,14908.435,337.3,111223,0.0,E,A*30
$GPVTG,337.344,T,337.344,M,14908.435,N,27610.421,K,A*20
$GPGSA,M,1,12,32,25,03,,,,,,,,,1.1,0.5,1.0*3E
$GPGSV,3,1,10,19,68,140,,17,45,108,,06,42,190,30,12,39,289,40*72
$GPGSV,3,2,10,03,35,062,36,24,19,245,,22,19,152,,32,16,334,47*7F
$GPGSV,3,3,10,11,12,206,32,25,09,311,44*73
$GPRMC,152129.00,A,6916.3651180,N,08726.1980918,E,14908.477,337.3,111223,0.0,E,A*34
$GPVTG,337.287,T,337.287,M,14908.477,N,27610.499,K,A*25
$GPGSA,M,1,12,32,25,03,,,,,,,,,1.1,0.5,1.0*3E
$GPGSV,3,1,10,19,68,140,,17,45,108,,06,42,190,30,12,39,289,40*72
$GPGSV,3,2,10,03,35,062,36,24,19,245,,22,19,152,,32,16,334,47*7F
$GPGSV,3,3,10,11,12,206,32,25,09,311,44*73
$GPRMC,152130.00,A,6919.8761492,N,08722.0374027,E,14908.518,337.2,111223,0.0,E,A*34
$GPVTG,337.230,T,337.230,M,14908.518,N,27610.575,K,A*2E
$GPGSA,M,1,12,32,25,03,,,,,,,,,1.1,0.5,1.0*3E
$GPGSV,3,1,10,19,68,140,,17,45,108,,06,42,190,30,12,39,289,40*72
$GPGSV,3,2,10,03,35,062,36,24,19,245,,22,19,152,,32,16,334,46*7E
$GPGSV,3,3,10,11,12,206,32,25,09,311,44*73
$GPRMC,152131.00,A,6923.3857010,N,08717.8554987,E,14908.462,337.2,111223,0.0,E,A*36
$GPVTG,337.172,T,337.172,M,14908.462,N,27610.473,K,A*25
$GPGSA,M,1,12,32,25,03,,,,,,,,,1.1,0.5,1.0*3E
$GPGSV,3,1,10,19,68,140,,17,45,108,,06,42,190,,12,39,289,40*71
$GPGSV,3,2,10,03,35,062,36,24,19,245,31,22,19,152,,32,16,334,47*7D
$GPGSV,3,3,10,11,12,206,32,25,09,311,44*73
$GPRMC,152132.00,A,6926.8937124,N,08713.6523102,E,14908.460,337.1,111223,0.0,E,A*34
$GPVTG,337.115,T,337.115,M,14908.460,N,27610.468,K,A*2D
$GPGSA,M,1,12,32,24,25,03,,,,,,,,1.2,0.5,1.1*3A
$GPGSV,3,1,11,19,67,140,,17,44,108,,06,41,189,,12,40,288,40*7A
$GPGSV,3,2,11,03,36,062,36,24,19,244,30,22,18,152,,32,17,334,47*7F
$GPGSV,3,3,11,11,12,206,32,25,10,310,44,28,00,002,*43
$GPRMC,152133.00,A,6930.4002412,N,08709.4274264,E,14908.463,337.1,111223,0.0,E,A*3D
$GPVTG,337.057,T,337.057,M,14908.463,N,27610.473,K,A*24
$GPGSA,M,1,12,32,24,25,03,,,,,,,,1.1,0.5,0.9*30
$GPGSV,3,1,11,19,67,140,,17,44,108,,06,41,189,,12,40,288,40*7A
$GPGSV,3,2,11,03,36,062,36,24,19,244,30,22,18,152,,32,17,334,47*7F
$GPGSV,3,3,11,11,12,206,32,25,10,310,44,28,00,002,*43
$GPRMC,152134.00,A,6933.9053250,N,08705.1807660,E,14908.457,337.0,111223,0.0,E,A*31
$GPVTG,336.998,T,336.998,M,14908.457,N,27610.463,K,A*22
$GPGSA,M,1,12,32,24,25,03,,,,,,,,1.1,0.5,0.9*30
$GPGSV,3,1,11,19,67,140,,17,44,108,,06,41,189,,12,40,288,40*7A
$GPGSV,3,2,11,03,36,062,36,24,19,244,31,22,18,152,,32,17,334,47*7E
$GPGSV,3,3,11,11,12,206,32,25,10,310,44,28,00,002,*43
$GPRMC,152135.00,A,6937.4089253,N,08700.9122956,E,14908.444,336.9,111223,0.0,E,A*3E
$GPVTG,336.939,T,336.939,M,14908.444,N,27610.439,K,A*2F
$GPGSA,M,1,12,32,24,25,03,,,,,,,,1.1,0.5,1.0*38
$GPGSV,3,1,11,19,67,140,,17,44,108,,06,41,189,,12,40,288,40*7A
$GPGSV,3,2,11,03,36,062,36,24,19,244,31,22,18,152,,32,17,334,47*7E
$GPGSV,3,3,11,11,12,206,33,25,10,310,44,28,00,002,*42
$GPRMC,152136.00,A,6940.9106774,N,08656.6217215,E,14908.338,336.9,111223,0.0,E,A*3E
$GPVTG,336.880,T,336.880,M,14908.338,N,27610.242,K,A*29
$GPGSA,M,1,12,32,24,25,03,,,,,,,,1.1,0.5,1.0*38
$GPGSV,3,1,11,19,67,140,,17,44,108,,06,41,189,,12,40,288,40*7A
$GPGSV,3,2,11,03,36,062,36,24,19,244,31,22,18,152,,32,17,334,47*7E
$GPGSV,3,3,11,11,12,206,32,25,10,310,44,28,00,002,*43
$GPRMC,152137.00,A,6944.4107732,N,08652.3098358,E,14908.445,336.8,111223,0.0,E,A*35
$GPVTG,336.820,T,336.820,M,14908.445,N,27610.439,K,A*2E
$GPGSA,M,1,12,32,24,25,03,,,,,,,,1.2,0.5,1.1*3A
$GPGSV,3,1,11,19,67,140,,17,44,108,,06,41,189,,12,40,288,40*7A
$GPGSV,3,2,11,03,36,062,36,24,19,244,31,22,18,152,,32,17,334,47*7E
$GPGSV,3,3,11,11,12,206,32,25,10,310,44,28,00,002,*43
$GPRMC,152138.00,A,6947.9095112,N,08647.9745476,E,14908.428,336.8,111223,0.0,E,A*33
$GPVTG,336.761,T,336.761,M,14908.428,N,27610.409,K,A*26
$GPGSA,M,1,12,32,24,25,03,,,,,,,,1.2,0.5,1.1*3A
$GPGSV,3,1,11,19,67,140,,17,44,108,,06,41,189,,12,40,288,40*7A
$GPGSV,3,2,11,03,36,062,36,24,19,244,31,22,18,152,,32,17,334,47*7E
$GPGSV,3,3,11,11,12,206,32,25,10,310,44,28,00,002,*43
$GPRMC,152139.00,A,6951.4066694,N,08643.6166001,E,14908.416,336.7,111223,0.0,E,A*37
$GPVTG,336.700,T,336.700,M,14908.416,N,27610.387,K,A*2A
$GPGSA,M,1,12,32,24,25,03,,,,,,,,1.2,0.5,1.1*3A
$GPGSV,3,1,11,19,67,140,,17,44,108,,06,41,189,,12,40,288,40*7A
$GPGSV,3,2,11,03,36,062,36,24,19,244,31,22,18,152,,32,17,334,47*7E
$GPGSV,3,3,11,11,12,206,32,25,10,310,43,28,00,002,*44
$GPRMC,152140.00,A,6954.9021128,N,08639.2358252,E,14908.397,336.6,111223,0.0,E,A*3F
$GPVTG,336.639,T,336.639,M,14908.397,N,27610.352,K,A*2C
$GPGSA,M,1,12,32,24,25,03,,,,,,,,1.2,0.5,1.1*3A
$GPGSV,3,1,11,19,67,140,,17,44,108,,06,41,189,,12,40,288,40*7A
$GPGSV,3,2,11,03,36,062,36,24,19,244,30,22,18,152,,32,17,334,46*7E
$GPGSV,3,3,11,11,12,206,32,25,10,310,44,28,00,002,*43
$GPRMC,152141.00,A,6958.3960488,N,08634.8322051,E,14908.326,336.6,111223,0.0,E,A*3A
$GPVTG,336.579,T,336.579,M,14908.326,N,27610.220,K,A*22
$GPGSA,M,1,12,32,24,25,03,,,,,,,,1.2,0.5,1.1*3A
$GPGSV,3,1,11,19,67,140,,17,44,108,31,06,41,189,,12,40,288,40*78
$GPGSV,3,2,11,03,36,062,36,24,19,244,31,22,18,152,,32,17,334,46*7F
$GPGSV,3,3,11,11,12,206,32,25,10,310,44,28,00,002,*43
$GPRMC,152142.00,A,7001.8882800,N,08630.4053094,E,14908.426,336.5,111223,0.0,E,A*37
$GPVTG,336.517,T,336.517,M,14908.426,N,27610.405,K,A*24
$GPGSA,M,1,12,32,17,24,25,03,,,,,,,1.1,0.5,1.0*3E
$GPGSV,3,1,11,19,67,140,,17,44,108,30,06,41,188,,12,40,286,40*76
$GPGSV,3,2,11,03,36,062,36,24,19,243,31,32,17,333,46,22,17,151,*73
$GPGSV,3,3,11,11,12,205,32,25,11,309,43,28,01,002,*4F
$GPRMC,152143.00,A,7005.3788859,N,08625.9548777,E,14908.288,336.5,111223,0.0,E,A*3E
$GPVTG,336.455,T,336.455,M,14908.288,N,27610.149,K,A*2B
$GPGSA,M,1,12,32,17,24,25,03,,,,,,,1.1,0.5,1.0*3E
$GPGSV,3,1,11,19,67,140,,17,44,108,30,06,41,188,,12,40,286,41*77
$GPGSV,3,2,11,03,36,062,36,24,19,243,31,32,17,333,46,22,17,151,*73
$GPGSV,3,3,11,11,12,205,32,25,11,309,44,28,01,002,*48
$GPRMC,152144.00,A,7008.8676478,N,08621.4810856,E,14908.368,336.4,111223,0.0,E,A*3B
$GPVTG,336.393,T,336.393,M,14908.368,N,27610.298,K,A*2B
$GPGSA,M,1,12,32,17,24,25,03,,,,,,,1.2,0.5,1.1*3C
$GPGSV,3,1,11,19,67,140,,17,44,108,31,06,41,188,,12,40,286,41*76
$GPGSV,3,2,11,03,36,062,35,24,19,243,31,32,17,333,46,22,17,151,*70
$GPGSV,3,3,11,11,12,205,32,25,11,309,43,28,01,002,*4F
$GPRMC,152145.00,A,7012.3550890,N,08616.9834801,E,14908.281,336.3,111223,0.0,E,A*3B
$GPVTG,336.330,T,336.330,M,14908.281,N,27610.136,K,A*2A
$GPGSA,M,1,12,32,17,24,25,03,,,,,,,1.2,0.5,1.1*3C
$GPGSV,3,1,11,19,67,140,,17,44,108,31,06,41,188,,12,40,286,40*77
$GPGSV,3,2,11,03,36,062,35,24,19,243,31,32,17,333,46,22,17,151,*70
$GPGSV,3,3,11,11,12,205,32,25,11,309,44,28,01,002,*48
$GPRMC,152146.00,A,7015.8406280,N,08612.4618927,E,14908.313,336.3,111223,0.0,E,A*3B
$GPVTG,336.267,T,336.267,M,14908.313,N,27610.195,K,A*29
$GPGSA,M,1,12,32,17,24,25,03,,,,,,,1.1,0.5,1.0*3E
$GPGSV,3,1,11,19,67,140,,17,44,108,32,06,41,188,,12,40,286,40*74
$GPGSV,3,2,11,03,36,062,36,24,19,243,31,32,17,333,46,22,17,151,*73
$GPGSV,3,3,11,11,12,205,32,25,11,309,44,28,01,002,*48
$GPRMC,152147.00,A,7019.3244548,N,08607.9160055,E,14908.346,336.2,111223,0.0,E,A*32
$GPVTG,336.204,T,336.204,M,14908.346,N,27610.257,K,A*24
$GPGSA,M,1,12,32,17,24,25,03,,,,,,,1.1,0.5,1.0*3E
$GPGSV,3,1,11,19,67,140,,17,44,108,32,06,41,188,,12,40,286,41*75
$GPGSV,3,2,11,03,36,062,36,24,19,243,31,32,17,333,47,22,17,151,*72
$GPGSV,3,3,11,11,12,205,32,25,11,309,44,28,01,002,*48
$GPRMC,152148.00,A,7022.8065762,N,08603.3456367,E,14908.313,336.1,111223,0.0,E,A*3A
$GPVTG,336.140,T,336.140,M,14908.313,N,27610.196,K,A*2A
$GPGSA,M,1,12,32,17,24,25,03,,,,,,,1.2,0.5,1.1*3C
$GPGSV,3,1,11,19,67,140,,17,44,108,32,06,41,188,,12,40,286,41*75
$GPGSV,3,2,11,03,36,062,36,24,19,243,30,32,17,333,47,22,17,151,*73
$GPGSV,3,3,11,11,12,205,33,25,11,309,44,28,01,002,*49
$GPRMC,152149.00,A,7026.2869736,N,08558.7509584,E,14908.416,336.1,111223,0.0,E,A*3B
$GPVTG,336.075,T,336.075,M,14908.416,N,27610.386,K,A*2B
$GPGSA,M,1,12,32,17,24,25,03,,,,,,,1.2,0.5,1.1*3C
$GPGSV,3,1,11,19,67,140,,17,44,108,32,06,41,188,,12,40,286,41*75
$GPGSV,3,2,11,03,36,062,36,24,19,243,32,32,17,333,47,22,17,151,*71
$GPGSV,3,3,11,11,12,205,33,25,11,309,44,28,01,002,*49
$GPRMC,152150.00,A,7029.7655345,N,08554.1313623,E,14908.375,336.0,111223,0.0,E,A*32
$GPVTG,336.011,T,336.011,M,14908.375,N,27610.310,K,A*26
$GPGSA,M,1,12,32,17,24,25,03,,,,,,,1.2,0.5,1.1*3C
$GPGSV,3,1,11,19,67,140,,17,44,108,32,06,41,188,,12,40,286,41*75
$GPGSV,3,2,11,03,36,062,36,24,19,243,31,32,17,333,47,22,17,151,*72
$GPGSV,3,3,11,11,12,205,33,25,11,309,44,28,01,002,*49
$GPRMC,152151.00,A,7033.2423441,N,08549.4868479,E,14908.368,335.9,111223,0.0,E,A*38
$GPVTG,335.946,T,335.946,M,14908.368,N,27610.298,K,A*2B
$GPGSA,M,1,12,32,17,24,25,03,,,,,,,1.2,0.5,1.1*3C
$GPGSV,3,1,11,19,67,140,,17,44,108,32,06,41,188,,12,40,286,41*75
$GPGSV,3,2,11,03,36,062,36,24,19,243,31,32,17,333,47,22,17,151,*72
$GPGSV,3,3,11,11,12,205,32,25,11,309,44,28,01,002,*48
$GPRMC,152152.00,A,7036.7173290,N,08544.8169544,E,14908.253,335.9,111223,0.0,E,A*3E
$GPVTG,335.880,T,335.880,M,14908.253,N,27610.085,K,A*2C
$GPGSA,M,1,12,32,17,24,25,03,,,,,,,1.2,0.5,1.1*3C
$GPGSV,3,1,11,19,66,139,,17,43,108,32,12,41,285,41,06,40,186,*70
$GPGSV,3,2,11,03,36,062,36,24,19,242,31,32,18,332,47,22,16,150,*7D
$GPGSV,3,3,11,25,11,308,44,11,11,204,33,28,02,001,*4A
$GPRMC,152153.00,A,7040.1905771,N,08540.1216818,E,14908.314,335.8,111223,0.0,E,A*3A
$GPVTG,335.814,T,335.814,M,14908.314,N,27610.197,K,A*2C
$GPGSA,M,1,12,32,17,24,25,03,,,,,,,1.2,0.5,1.1*3C
$GPGSV,3,1,11,19,66,139,,17,43,108,32,12,41,285,41,06,40,186,*70
$GPGSV,3,2,11,03,36,062,35,24,19,242,31,32,18,332,47,22,16,150,*7E
$GPGSV,3,3,11,25,11,308,44,11,11,204,33,28,02,001,*4A
$GPRMC,152154.00,A,7043.6620196,N,08535.4005052,E,14908.250,335.7,111223,0.0,E,A*31
$GPVTG,335.748,T,335.748,M,14908.250,N,27610.079,K,A*2C
$GPGSA,M,1,12,32,17,24,25,03,,,,,,,1.2,0.5,1.1*3C
$GPGSV,3,1,11,19,66,139,,17,43,108,32,12,41,285,41,06,40,186,*70
$GPGSV,3,2,11,03,36,062,36,24,19,242,31,32,18,332,47,22,16,150,*7D
$GPGSV,3,3,11,25,11,308,44,11,11,204,33,28,02,001,*4A
$GPRMC,152155.00,A,7047.1315169,N,08530.6538548,E,14908.243,335.7,111223,0.0,E,A*30
$GPVTG,335.681,T,335.681,M,14908.243,N,27610.067,K,A*21
$GPGSA,M,1,12,32,17,24,25,03,,,,,,,1.2,0.5,1.1*3C
$GPGSV,3,1,11,19,66,139,,17,43,108,32,12,41,285,41,06,40,186,*70
$GPGSV,3,2,11,03,36,062,36,24,19,242,32,32,18,332,46,22,16,150,*7F
$GPGSV,3,3,11,25,11,308,44,11,11,204,33,28,02,001,*4A
$GPRMC,152156.00,A,7050.5992686,N,08525.8806524,E,14908.253,335.6,111223,0.0,E,A*32
$GPVTG,335.614,T,335.614,M,14908.253,N,27610.084,K,A*2D
$GPGSA,M,1,12,32,17,24,25,03,,,,,,,1.2,0.5,1.1*3C
$GPGSV,3,1,11,19,66,139,,17,43,108,32,12,41,285,41,06,40,186,*70
$GPGSV,3,2,11,03,36,062,35,24,19,242,32,32,18,332,46,22,16,150,*7C
$GPGSV,3,3,11,25,11,308,44,11,11,204,32,28,02,001,*4B
$GPRMC,152157.00,A,7054.0651053,N,08521.0813197,E,14908.333,335.5,111223,0.0,E,A*3C
$GPVTG,335.546,T,335.546,M,14908.333,N,27610.232,K,A*25
$GPGSA,M,1,12,32,17,24,25,03,,,,,,,1.2,0.5,1.1*3C
$GPGSV,3,1,11,19,66,139,,17,43,108,32,12,41,285,41,06,40,186,*70
$GPGSV,3,2,11,03,36,062,35,24,19,242,31,32,18,332,46,22,16,150,*7F
$GPGSV,3,3,11,25,11,308,43,11,11,204,33,28,02,001,*4D
$GPRMC,152158.00,A,7057.5290802,N,08516.2554484,E,14908.308,335.5,111223,0.0,E,A*37
$GPVTG,335.478,T,335.478,M,14908.308,N,27610.187,K,A*20
$GPGSA,M,1,12,32,17,24,25,03,,,,,,,1.2,0.5,1.1*3C
$GPGSV,3,1,11,19,66,139,,17,43,108,32,12,41,285,41,06,40,186,*70
$GPGSV,3,2,11,03,36,062,35,24,19,242,32,32,18,332,46,22,16,150,*7C
$GPGSV,3,3,11,25,11,308,43,11,11,204,32,28,02,001,*4C
$GPRMC,152159.00,A,7100.9910719,N,08511.4032276,E,14908.195,335.4,111223,0.0,E,A*37
$GPVTG,335.409,T,335.409,M,14908.195,N,27609.977,K,A*29
$GPGSA,M,1,12,32,17,24,25,03,,,,,,,1.2,0.5,1.1*3C
$GPGSV,3,1,11,19,66,139,,17,43,108,32,12,41,285,41,06,40,186,*70
$GPGSV,3,2,11,03,36,062,35,24,19,242,32,32,18,332,46,22,16,150,*7C
$GPGSV,3,3,11,25,11,308,43,11,11,204,33,28,02,001,*4D
$GPRMC,152200.00,A,7104.4512225,N,08506.5232714,E,14908.312,335.3,111223,0.0,E,A*3B
$GPVTG,335.340,T,335.340,M,14908.312,N,27610.195,K,A*28
$GPGSA,M,1,12,32,17,24,25,03,,,,,,,1.2,0.5,1.1*3C
$GPGSV,3,1,11,19,66,139,,17,43,108,32,12,41,285,41,06,40,186,*70
$GPGSV,3,2,11,03,36,062,36,24,19,242,32,32,18,332,46,22,16,150,*7F
$GPGSV,3,3,11,25,11,308,43,11,11,204,32,28,02,001,*4C
$GPRMC,152201.00,A,7107.9094167,N,08501.6167349,E,14908.382,335.3,111223,0.0,E,A*38
$GPVTG,335.271,T,335.271,M,14908.382,N,27610.323,K,A*2E
$GPGSA,M,1,12,32,17,24,25,03,,,,,,,1.2,0.5,1.1*3C
$GPGSV,3,1,11,19,66,139,,17,43,108,33,12,41,285,41,06,40,186,*71
$GPGSV,3,2,11,03,36,062,35,24,19,242,32,32,18,332,46,22,16,150,*7C
$GPGSV,3,3,11,25,11,308,44,11,11,204,33,28,02,001,*4A
$GPRMC,152202.00,A,7111.3656684,N,08456.6824286,E,14908.324,335.2,111223,0.0,E,A*36
$GPVTG,335.201,T,335.201,M,14908.324,N,27610.216,K,A*25
$GPGSA,M,1,12,32,17,24,25,03,,,,,,,1.2,0.5,1.1*3C
$GPGSV,3,1,11,19,65,139,,17,42,108,32,12,41,283,41,06,40,185,*77
$GPGSV,3,2,11,03,36,062,35,24,19,241,31,32,19,331,46,22,16,150,*7E
$GPGSV,3,3,11,25,12,307,43,11,11,203,33,28,02,000,*47
$GPRMC,152203.00,A,7114.8199297,N,08451.7197352,E,14908.258,335.1,111223,0.0,E,A*3D
$GPVTG,335.130,T,335.130,M,14908.258,N,27610.095,K,A*26
$GPGSA,M,1,12,32,17,24,25,03,,,,,,,1.3,0.5,1.1*3D
$GPGSV,3,1,11,19,65,139,,17,42,108,32,12,41,283,41,06,40,185,*77
$GPGSV,3,2,11,03,36,062,35,24,19,241,32,32,19,331,46,22,16,150,*7D
$GPGSV,3,3,11,25,12,307,43,11,11,203,33,28,02,000,*47
$GPRMC,152204.00,A,7118.2719436,N,08446.7300168,E,14908.135,335.1,111223,0.0,E,A*36
$GPVTG,335.060,T,335.060,M,14908.135,N,27609.866,K,A*22
$GPGSA,M,1,12,32,17,24,25,03,,,,,,,1.4,0.5,1.3*38
$GPGSV,3,1,11,19,65,139,,17,42,108,32,12,41,283,41,06,40,185,*77
$GPGSV,3,2,11,03,36,062,35,24,19,241,32,32,19,331,46,22,16,150,*7D
$GPGSV,3,3,11,25,12,307,43,11,11,203,32,28,02,000,*46
$GPRMC,152205.00,A,7121.7221923,N,08441.7117993,E,14908.260,335.0,111223,0.0,E,A*32
$GPVTG,334.988,T,334.988,M,14908.260,N,27610.099,K,A*21
$GPGSA,M,1,12,32,17,24,25,03,,,,,,,1.4,0.5,1.3*38
$GPGSV,3,1,11,19,65,139,,17,42,108,32,12,41,283,41,06,40,185,*77
$GPGSV,3,2,11,03,36,062,35,24,19,241,32,32,19,331,46,22,16,150,*7D
$GPGSV,3,3,11,25,12,307,43,11,11,203,33,28,02,000,*47
$GPRMC,152206.00,A,7125.1703845,N,08436.6651639,E,14908.300,334.9,111223,0.0,E,A*33
$GPVTG,334.916,T,334.916,M,14908.300,N,27610.173,K,A*23
$GPGSA,M,1,12,32,17,24,25,03,,,,,,,1.4,0.5,1.3*38
$GPGSV,3,1,11,19,65,139,,17,42,108,32,12,41,283,41,06,40,185,*77
$GPGSV,3,2,11,03,36,062,35,24,19,241,32,32,19,331,46,22,16,150,*7D
$GPGSV,3,3,11,25,12,307,43,11,11,203,33,28,02,000,*47
$GPRMC,152207.00,A,7128.6166648,N,08431.5894517,E,14908.245,334.8,111223,0.0,E,A*33
$GPVTG,334.844,T,334.844,M,14908.245,N,27610.070,K,A*21
$GPGSA,M,1,12,32,17,24,25,03,,,,,,,1.5,0.6,1.4*3D
$GPGSV,3,1,11,19,65,139,,17,42,108,32,12,41,283,41,06,40,185,*77
$GPGSV,3,2,11,03,36,062,35,24,19,241,32,32,19,331,46,22,16,150,*7D
$GPGSV,3,3,11,25,12,307,44,11,11,203,33,28,02,000,*40
$GPRMC,152208.00,A,7132.0607457,N,08426.4851689,E,14908.232,334.8,111223,0.0,E,A*37
$GPVTG,334.771,T,334.771,M,14908.232,N,27610.045,K,A*27
$GPGSA,M,1,12,32,17,24,25,03,,,,,,,1.5,0.6,1.4*3D
$GPGSV,3,1,11,19,65,139,,17,42,108,32,12,41,283,41,06,40,185,*77
$GPGSV,3,2,11,03,36,062,35,24,19,241,32,32,19,331,46,22,16,150,*7D
$GPGSV,3,3,11,25,12,307,43,11,11,203,32,28,02,000,*46
$GPRMC,152209.00,A,7135.5027692,N,08421.3518658,E,14908.179,334.7,111223,0.0,E,A*34
$GPVTG,334.698,T,334.698,M,14908.179,N,27609.947,K,A*28
$GPGSA,M,1,12,32,17,24,25,03,,,,,,,1.5,0.6,1.4*3D
$GPGSV,3,1,11,19,65,139,,17,42,108,32,12,41,283,41,06,40,185,*77
$GPGSV,3,2,11,03,36,062,35,24,19,241,32,32,19,331,46,22,16,150,*7D
$GPGSV,3,3,11,25,12,307,44,11,11,203,32,28,02,000,*41
$GPRMC,152210.00,A,7138.9426323,N,08416.1891962,E,14908.251,334.6,111223,0.0,E,A*33
$GPVTG,334.625,T,334.625,M,14908.251,N,27610.082,K,A*29
$GPGSA,M,1,12,32,17,24,25,03,,,,,,,1.4,0.5,1.3*38
$GPGSV,3,1,11,19,65,139,,17,42,108,32,12,41,283,41,06,40,185,*77
$GPGSV,3,2,11,03,36,062,35,24,19,241,32,32,19,331,46,22,16,150,*7D
$GPGSV,3,3,11,25,12,307,44,11,11,203,33,28,02,000,*40
$GPRMC,152211.00,A,7142.3804124,N,08410.9965297,E,14908.298,334.6,111223,0.0,E,A*3C
$GPVTG,334.550,T,334.550,M,14908.298,N,27610.167,K,A*26
$GPGSA,M,1,12,32,17,24,25,03,,,,,,,1.4,0.5,1.3*38
$GPGSV,3,1,11,19,65,139,,17,42,108,31,12,41,283,41,06,40,185,*74
$GPGSV,3,2,11,03,36,062,35,24,19,241,33,32,19,331,46,22,16,150,*7C
$GPGSV,3,3,11,25,12,307,44,11,11,203,34,28,02,000,*47
$GPRMC,152212.00,A,7145.8160493,N,08405.7736602,E,14908.185,334.5,111223,0.0,E,A*37
$GPVTG,334.476,T,334.476,M,14908.185,N,27609.958,K,A*25
$GPGSA,M,1,12,32,17,24,25,03,,,,,,,1.4,0.6,1.3*3B
$GPGSV,3,1,11,19,64,139,,12,42,282,41,17,42,108,32,06,39,184,*7B
$GPGSV,3,2,11,03,36,062,35,32,19,330,46,24,19,239,33,22,15,149,*79
$GPGSV,3,3,11,25,13,306,44,11,11,202,33,28,03,359,*4F
$GPRMC,152213.00,A,7149.2495811,N,08400.5216076,E,14908.164,334.4,111223,0.0,E,A*32
$GPVTG,334.400,T,334.400,M,14908.164,N,27609.920,K,A*25
$GPGSA,M,1,12,32,17,24,25,03,,,,,,,1.5,0.6,1.4*3D
$GPGSV,3,1,11,19,64,139,,12,42,282,41,17,42,108,31,06,39,184,*78
$GPGSV,3,2,11,03,36,062,35,32,19,330,46,24,19,239,33,22,15,149,*79
$GPGSV,3,3,11,25,13,306,44,11,11,202,33,28,03,359,*4F
$GPRMC,152214.00,A,7152.6808591,N,08355.2384312,E,14908.166,334.3,111223,0.0,E,A*38
$GPVTG,334.325,T,334.325,M,14908.166,N,27609.924,K,A*23
$GPGSA,M,1,12,32,17,24,25,03,,,,,,,1.5,0.6,1.4*3D
$GPGSV,3,1,11,19,64,139,,12,42,282,41,17,42,108,31,06,39,184,*78
$GPGSV,3,2,11,03,36,062,34,32,19,330,46,24,19,239,33,22,15,149,*78
$GPGSV,3,3,11,25,13,306,44,11,11,202,33,28,03,359,*4F
$GPRMC,152215.00,A,7156.1099786,N,08349.9244695,E,14908.090,334.2,111223,0.0,E,A*36
$GPVTG,334.248,T,334.248,M,14908.090,N,27609.784,K,A*2F
$GPGSA,M,1,12,32,17,24,25,03,,,,,,,1.5,0.6,1.4*3D
$GPGSV,3,1,11,19,64,139,,12,42,282,41,17,42,108,31,06,39,184,*78
$GPGSV,3,2,11,03,36,062,34,32,19,330,46,24,19,239,32,22,15,149,*79
$GPGSV,3,3,11,25,13,306,44,11,11,202,32,28,03,359,*4E
$GPRMC,152216.00,A,7159.5368866,N,08344.5791434,E,14908.268,334.2,111223,0.0,E,A*32
$GPVTG,334.171,T,334.171,M,14908.268,N,27610.113,K,A*2A
$GPGSA,M,1,12,32,17,24,25,03,,,,,,,1.4,0.6,1.3*3B
$GPGSV,3,1,11,19,64,139,,12,42,282,41,17,42,108,31,06,39,184,*78
$GPGSV,3,2,11,03,36,062,34,32,19,330,46,24,19,239,33,22,15,149,*78
$GPGSV,3,3,11,25,13,306,44,11,11,202,33,28,03,359,*4F
$GPRMC,152217.00,A,7202.9610438,N,08339.2029252,E,14908.229,334.1,111223,0.0,E,A*36
$GPVTG,334.094,T,334.094,M,14908.229,N,27610.040,K,A*28
$GPGSA,M,1,12,32,17,24,25,03,,,,,,,1.4,0.6,1.3*3B
$GPGSV,3,1,11,19,64,139,,12,42,282,41,17,42,108,,06,39,184,*7A
$GPGSV,3,2,11,03,36,062,34,32,19,330,46,24,19,239,33,22,15,149,*78
$GPGSV,3,3,11,25,13,306,44,11,11,202,33,28,03,359,*4F
$GPRMC,152218.00,A,7206.3833312,N,08333.7957360,E,14907.257,334.0,111223,0.0,E,A*3F
$GPVTG,334.023,T,334.023,M,14907.257,N,27608.240,K,A*25
$GPGSA,M,1,12,32,24,25,03,,,,,,,,1.5,0.6,1.4*3B
$GPGSV,3,1,11,19,64,139,,12,42,282,41,17,42,108,31,06,39,184,*78
$GPGSV,3,2,11,03,36,062,34,32,19,330,46,24,19,239,34,22,15,149,*7F
$GPGSV,3,3,11,25,13,306,44,11,11,202,31,28,03,359,*4D
$GPRMC,152219.00,A,7209.8034032,N,08328.3556560,E,14908.135,333.9,111223,0.0,E,A*37
$GPVTG,333.938,T,333.938,M,14908.135,N,27609.867,K,A*23
$GPGSA,M,1,12,32,17,24,25,03,,,,,,,1.4,0.6,1.3*3B
$GPGSV,3,1,11,19,64,139,,12,42,282,41,17,42,108,31,06,39,184,*78
$GPGSV,3,2,11,03,36,062,33,32,19,330,46,24,19,239,33,22,15,149,*7F
$GPGSV,3,3,11,25,13,306,44,11,11,202,32,28,03,359,*4E
$GPRMC,152220.00,A,7213.2210649,N,08322.8847651,E,14907.274,333.9,111223,0.0,E,A*36
$GPVTG,333.867,T,333.867,M,14907.274,N,27608.272,K,A*25
$GPGSA,M,1,12,32,17,24,25,03,,,,,,,1.4,0.5,1.3*38
$GPGSV,3,1,11,19,64,139,,12,42,282,41,17,42,108,30,06,39,184,*79
$GPGSV,3,2,11,03,36,062,33,32,19,330,46,24,19,239,33,22,15,149,*7F
$GPGSV,3,3,11,25,13,306,44,11,11,202,32,28,03,359,*4E
$GPRMC,152221.00,A,7216.6365261,N,08317.3794564,E,14908.113,333.8,111223,0.0,E,A*3E
$GPVTG,333.780,T,333.780,M,14908.113,N,27609.825,K,A*21
$GPGSA,M,1,12,32,17,24,25,03,,,,,,,1.4,0.6,1.3*3B
$GPGSV,3,1,11,19,64,139,,12,42,282,41,17,42,108,31,06,39,184,*78
$GPGSV,3,2,11,03,36,062,34,32,19,330,46,24,19,239,33,22,15,149,*78
$GPGSV,3,3,11,25,13,306,44,11,11,202,32,28,03,359,*4E
$GPRMC,152222.00,A,7220.0495928,N,08311.8424396,E,14908.039,333.7,111223,0.0,E,A*38
$GPVTG,333.699,T,333.699,M,14908.039,N,27609.688,K,A*21
$GPGSA,M,1,12,32,17,24,25,03,,,,,,,1.4,0.6,1.3*3B
$GPGSV,3,1,11,19,63,138,,12,43,280,41,17,41,107,,06,38,183,*75
$GPGSV,3,2,11,03,36,062,33,32,20,329,46,24,19,238,34,22,14,148,*7B
$GPGSV,3,3,11,25,13,305,44,11,10,201,32,28,04,359,*48
$GPRMC,152223.00,A,7223.4602888,N,08306.2720485,E,14908.187,333.6,111223,0.0,E,A*32
$GPVTG,333.620,T,333.620,M,14908.187,N,27609.962,K,A*2E
$GPGSA,M,1,12,32,24,25,03,,,,,,,,1.5,0.6,1.4*3B
$GPGSV,3,1,11,19,63,138,,12,43,280,41,17,41,107,30,06,38,183,*76
$GPGSV,3,2,11,03,36,062,33,32,20,329,46,24,19,238,34,22,14,148,*7B
$GPGSV,3,3,11,25,13,305,44,11,10,201,32,28,04,359,*48
$GPRMC,152224.00,A,7226.8684657,N,08300.6693333,E,14908.181,333.5,111223,0.0,E,A*3A
$GPVTG,333.538,T,333.538,M,14908.181,N,27609.951,K,A*28
$GPGSA,M,1,12,32,17,24,25,03,,,,,,,1.4,0.6,1.3*3B
$GPGSV,3,1,11,19,63,138,,12,43,280,41,17,41,107,30,06,38,183,*76
$GPGSV,3,2,11,03,36,062,33,32,20,329,46,24,19,238,34,22,14,148,*7B
$GPGSV,3,3,11,25,13,305,44,11,10,201,32,28,04,359,*48
$GPRMC,152225.00,A,7230.2743006,N,08255.0323178,E,14908.116,333.5,111223,0.0,E,A*34
$GPVTG,333.457,T,333.457,M,14908.116,N,27609.831,K,A*21
$GPGSA,M,1,12,32,17,24,25,03,,,,,,,1.4,0.6,1.3*3B
$GPGSV,3,1,11,19,63,138,,12,43,280,41,17,41,107,30,06,38,183,*76
$GPGSV,3,2,11,03,36,062,35,32,20,329,46,24,19,238,34,22,14,148,*7D
$GPGSV,3,3,11,25,13,305,44,11,10,201,32,28,04,359,*48
$GPRMC,152226.00,A,7233.6776914,N,08249.3608590,E,14908.255,333.4,111223,0.0,E,A*39
$GPVTG,333.374,T,333.374,M,14908.255,N,27610.089,K,A*26
$GPGSA,M,1,12,32,17,24,25,03,,,,,,,1.4,0.6,1.3*3B
$GPGSV,3,1,11,19,63,138,,12,43,280,41,17,41,107,31,06,38,183,*77
$GPGSV,3,2,11,03,36,062,33,32,20,329,46,24,19,238,34,22,14,148,*7B
$GPGSV,3,3,11,25,13,305,44,11,10,201,32,28,04,359,*48
$GPRMC,152227.00,A,7237.0788879,N,08243.6556120,E,14908.104,333.3,111223,0.0,E,A*39
$GPVTG,333.292,T,333.292,M,14908.104,N,27609.809,K,A*29
$GPGSA,M,1,12,32,17,24,25,03,,,,,,,1.4,0.6,1.3*3B
$GPGSV,3,1,11,19,63,138,,12,43,280,41,17,41,107,,06,38,183,*75
$GPGSV,3,2,11,03,36,062,33,32,20,329,46,24,19,238,34,22,14,148,*7B
$GPGSV,3,3,11,25,13,305,44,11,10,201,32,28,04,359,*48
$GPRMC,152228.00,A,7240.4773446,N,08237.9154000,E,14908.151,333.2,111223,0.0,E,A*3E
$GPVTG,333.208,T,333.208,M,14908.151,N,27609.895,K,A*2C
$GPGSA,M,1,12,32,24,25,03,,,,,,,,1.5,0.6,1.4*3B
$GPGSV,3,1,11,19,63,138,,12,43,280,41,17,41,107,29,06,38,183,*7E
$GPGSV,3,2,11,03,36,062,33,32,20,329,46,24,19,238,34,22,14,148,*7B
$GPGSV,3,3,11,25,13,305,44,11,10,201,31,28,04,359,*4B
$GPRMC,152229.00,A,7243.8731239,N,08232.1417310,E,14908.253,333.1,111223,0.0,E,A*37
$GPVTG,333.125,T,333.125,M,14908.253,N,27610.084,K,A*2D
$GPGSA,M,1,12,32,17,24,25,03,,,,,,,1.4,0.6,1.3*3B
$GPGSV,3,1,11,19,63,138,,12,43,280,41,17,41,107,29,06,38,18