$GPGSV,4,2,13,10,37,140,35,02,32,033,49,23,30,184,37,15,29,236,*76
$GPGSV,4,3,13,13,22,275,36,24,20,211,,30,19,339,48,17,11,317,47*73
$GPGSV,4,4,13,27,09,105,*43
$GPGGA,042710.00,8228.9470,S,00939.7717,E,1,25,0.6,558634.17,M,-10.40,M,,*68
$GPRMC,042710.00,A,8228.9470266,S,00939.7717249,E,14854.627,261.6,050124,0.0,E,A*24
$GPGSA,M,3,08,21,02,23,14,22,30,13,17,10,,,1.2,0.6,1.1*30
$GPVTG,261.622,T,261.622,M,14854.627,N,27510.770,K,A*2D
$GPGSV,4,1,13,14,51,323,45,22,40,290,44,21,39,045,46,08,38,077,42*7C
$GPGSV,4,2,13,10,37,140,34,02,32,033,49,23,30,184,37,15,29,236,*77
$GPGSV,4,3,13,13,22,275,36,24,20,211,,30,19,339,48,17,11,317,47*73
$GPGSV,4,4,13,27,09,105,*43
$GPGGA,042711.00,8229.4821,S,00911.1862,E,1,25,0.6,558633.85,M,-10.60,M,,*62
$GPRMC,042711.00,A,8229.4820876,S,00911.1862009,E,14854.602,262.1,050124,0.0,E,A*2F
$GPVTG,262.086,T,262.086,M,14854.602,N,27510.724,K,A*2B
$GPGSA,M,3,08,21,02,23,14,22,30,13,17,10,,,1.2,0.6,1.1*30
$GPGSV,4,1,13,14,51,323,45,22,40,290,44,21,39,045,46,08,38,077,42*7C
$GPGSV,4,2,13,10,37,140,34,02,32,033,49,23,30,184,37,15,29,236,*77
$GPGSV,4,3,13,13,22,275,36,24,20,211,,30,19,339,48,17,11,317,47*73
$GPGSV,4,4,13,27,09,105,*43
$GPGGA,042712.00,8229.9868,S,00842.5356,E,1,25,0.6,558633.34,M,-10.70,M,,*65
$GPRMC,042712.00,A,8229.9868171,S,00842.5355503,E,14854.608,262.6,050124,0.0,E,A*2D
$GPGSA,M,3,08,21,02,23,14,22,30,13,17,10,,,1.2,0.6,1.1*30
$GPVTG,262.551,T,262.551,M,14854.608,N,27510.734,K,A*20
$GPGSV,4,1,13,14,52,329,45,22,41,295,44,21,38,051,46,08,37,082,41*73
$GPGSV,4,2,13,10,37,144,34,02,32,038,49,15,30,240,,23,30,189,37*7C
$GPGSV,4,3,13,13,23,280,36,24,20,216,,30,19,344,48,17,11,322,47*73
$GPGSV,4,4,13,27,08,109,*4E
$GPGGA,042713.00,8230.4611,S,00813.8234,E,1,25,0.6,558632.70,M,-10.70,M,,*6C
$GPRMC,042713.00,A,8230.4611098,S,00813.8234323,E,14854.654,263.0,050124,0.0,E,A*2A
$GPGSA,M,3,08,21,02,23,14,22,30,13,17,10,,,1.2,0.6,1.1*30
$GPVTG,263.017,T,263.017,M,14854.654,N,27510.819,K,A*29
$GPGSV,4,1,13,14,52,329,45,22,41,295,44,21,38,051,46,08,37,082,41*73
$GPGSV,4,2,13,10,37,144,34,02,32,038,49,15,30,240,,23,30,189,37*7C
$GPGSV,4,3,13,13,23,280,36,24,20,216,,30,19,344,48,17,11,322,47*73
$GPGSV,4,4,13,27,08,109,*4E
$GPGGA,042714.00,8230.9049,S,00745.0535,E,1,25,0.6,558631.95,M,-10.70,M,,*67
$GPRMC,042714.00,A,8230.9048845,S,00745.0534571,E,14854.654,263.5,050124,0.0,E,A*25
$GPGSA,M,3,08,21,02,23,14,22,30,13,17,10,,,1.2,0.6,1.1*30
$GPVTG,263.484,T,263.484,M,14854.654,N,27510.819,K,A*29
$GPGSV,4,1,13,14,52,329,45,22,41,295,44,21,38,051,46,08,37,082,41*73
$GPGSV,4,2,13,10,37,144,34,02,32,038,49,15,30,240,,23,30,189,37*7C
$GPGSV,4,3,13,13,23,280,36,24,20,216,,30,19,344,48,17,11,322,46*72
$GPGSV,4,4,13,27,08,109,*4E
$GPGGA,042715.00,8231.3180,S,00716.2293,E,1,25,0.6,558631.16,M,-10.70,M,,*6D
$GPRMC,042715.00,A,8231.3180353,S,00716.2293075,E,14854.643,264.0,050124,0.0,E,A*2D
$GPVTG,263.953,T,263.953,M,14854.643,N,27510.799,K,A*28
$GPGSA,M,3,08,21,02,23,14,22,30,13,17,10,,,1.2,0.6,1.1*30
$GPGSV,4,1,13,14,52,329,45,22,41,295,44,21,38,051,46,08,37,082,41*73
$GPGSV,4,2,13,10,37,144,34,02,32,038,49,15,30,240,,23,30,189,37*7C
$GPGSV,4,3,13,13,23,280,36,24,20,216,,30,19,344,48,17,11,322,47*73
$GPGSV,4,4,13,27,08,109,*4E
$GPGGA,042716.00,8231.7005,S,00647.3547,E,1,25,0.6,558630.27,M,-10.70,M,,*6F
$GPRMC,042716.00,A,8231.7004969,S,00647.3547292,E,14854.615,264.4,050124,0.0,E,A*22
$GPVTG,264.422,T,264.422,M,14854.615,N,27510.747,K,A*28
$GPGSA,M,3,08,21,02,23,14,22,30,13,17,10,,,1.2,0.6,1.1*30
$GPGSV,4,1,13,14,52,329,45,22,41,295,44,21,38,051,46,08,37,082,41*73
$GPGSV,4,2,13,10,37,144,34,02,32,038,49,15,30,240,,23,30,189,37*7C
$GPGSV,4,3,13,13,23,280,36,24,20,216,,30,19,344,48,17,11,322,47*73
$GPGSV,4,4,13,27,08,109,*4E
$GPGGA,042717.00,8232.0521,S,00618.4335,E,1,25,0.6,558629.21,M,-10.80,M,,*66
$GPRMC,042717.00,A,8232.0521274,S,00618.4334748,E,14854.648,264.9,050124,0.0,E,A*2A
$GPGSA,M,3,08,21,02,23,14,22,30,13,17,10,,,1.2,0.6,1.1*30
$GPVTG,264.891,T,264.891,M,14854.648,N,27510.809,K,A*25
$GPGSV,4,1,13,14,52,329,45,22,41,295,44,21,38,051,46,08,37,082,41*73
$GPGSV,4,2,13,10,37,144,34,02,32,038,49,15,30,240,,23,30,189,37*7C
$GPGSV,4,3,13,13,23,280,36,24,20,216,,30,19,344,48,17,11,322,47*73
$GPGSV,4,4,13,27,08,109,*4E
$GPGGA,042718.00,8232.3729,S,00549.4695,E,1,25,0.6,558628.22,M,-10.80,M,,*6A
$GPRMC,042718.00,A,8232.3729418,S,00549.4694774,E,14854.665,265.4,050124,0.0,E,A*24
$GPGSA,M,3,08,21,02,23,14,22,30,13,17,10,,,1.2,0.6,1.1*30
$GPVTG,265.361,T,265.361,M,14854.665,N,27510.840,K,A*27
$GPGSV,4,1,13,14,52,329,45,22,41,295,44,21,38,051,46,08,37,082,41*73
$GPGSV,4,2,13,10,37,144,35,02,32,038,49,15,30,240,,23,30,189,37*7D
$GPGSV,4,3,13,13,23,280,36,24,20,216,,30,19,344,48,17,11,322,47*73
$GPGSV,4,4,13,27,08,109,*4E
$GPGGA,042719.00,8232.6628,S,00520.4665,E,1,25,0.6,558627.30,M,-10.90,M,,*63
$GPRMC,042719.00,A,8232.6628500,S,00520.4664835,E,14854.595,265.8,050124,0.0,E,A*22
$GPGSA,M,3,08,21,02,23,14,22,30,13,17,10,,,1.2,0.6,1.1*30
$GPVTG,265.832,T,265.832,M,14854.595,N,27510.711,K,A*20
$GPGSV,4,1,13,14,52,329,45,22,41,295,44,21,38,051,46,08,37,082,41*73
$GPGSV,4,2,13,10,37,144,35,02,32,038,49,15,30,240,,23,30,189,37*7D
$GPGSV,4,3,13,13,23,280,36,24,20,216,,30,19,344,48,17,11,322,47*73
$GPGSV,4,4,13,27,08,109,*4E
$GPGGA,042720.00,8232.9218,S,00451.4284,E,1,25,0.6,558626.16,M,-10.90,M,,*68
$GPRMC,042720.00,A,8232.9217702,S,00451.4283906,E,14854.589,266.3,050124,0.0,E,A*21
$GPVTG,266.304,T,266.304,M,14854.589,N,27510.700,K,A*2D
$GPGSA,M,3,08,21,02,23,14,22,30,13,17,10,,,1.2,0.6,1.1*30
$GPGSV,4,1,13,14,52,329,45,22,41,295,44,21,38,051,46,08,37,082,41*73
$GPGSV,4,2,13,10,37,144,35,02,32,038,49,15,30,240,,23,30,189,37*7D
$GPGSV,4,3,13,13,23,280,36,24,20,216,,30,19,344,48,17,11,322,47*73
$GPGSV,4,4,13,27,08,109,*4E
$GPGGA,042721.00,8233.1497,S,00422.3591,E,1,25,0.6,558625.19,M,-11.10,M,,*64
$GPRMC,042721.00,A,8233.1496526,S,00422.3590854,E,14854.636,266.8,050124,0.0,E,A*2E
$GPGSA,M,3,08,21,02,23,14,22,30,13,17,10,,,1.2,0.6,1.1*30
$GPVTG,266.776,T,266.776,M,14854.636,N,27510.785,K,A*27
$GPGSV,4,1,13,14,52,329,45,22,41,295,44,21,38,051,46,08,37,082,41*73
$GPGSV,4,2,13,10,37,144,35,02,32,038,49,15,30,240,,23,30,189,37*7D
$GPGSV,4,3,13,13,23,280,36,24,20,216,,30,19,344,48,17,11,322,47*73
$GPGSV,4,4,13,27,08,109,*4E
$GPGGA,042722.00,8233.3465,S,00353.2625,E,1,25,0.6,558624.04,M,-11.20,M,,*6A
$GPRMC,042722.00,A,8233.3464634,S,00353.2624686,E,14854.608,267.2,050124,0.0,E,A*29
$GPVTG,267.249,T,267.249,M,14854.608,N,27510.735,K,A*21
$GPGSA,M,3,08,21,02,23,14,22,30,13,17,10,,,1.2,0.6,1.1*30
$GPGSV,4,1,13,14,52,335,45,22,42,301,44,21,37,056,46,10,37,148,35*74
$GPGSV,4,2,13,08,36,087,41,02,31,044,49,15,31,245,,23,30,193,37*7F
$GPGSV,4,3,13,13,23,285,36,24,21,220,,30,19,349,48,17,12,327,47*79
$GPGSV,4,4,13,27,07,114,*4D
$GPGGA,042723.00,8233.5121,S,00324.1426,E,1,25,0.6,558622.84,M,-11.30,M,,*65
$GPRMC,042723.00,A,8233.5121492,S,00324.1426006,E,14854.703,267.7,050124,0.0,E,A*26
14910.011,348.1,070124,0.0,E,A*21
$GPVTG,348.120,T,348.120,M,14910.011,N,27613.340,K,A*28
$GPGSA,M,3,29,12,31,10,25,28,26,32,,,,,1.1,0.6,0.9*32
$GPGSV,3,1,11,32,81,138,52,25,53,137,46,28,50,225,46,10,31,339,49*77
$GPGSV,3,2,11,31,31,252,43,29,27,060,46,26,25,314,46,12,18,139,38*7D
$GPGSV,3,3,11,23,07,005,44,03,02,214,,16,01,322,*49
$GPGGA,200802.00,3024.6781,S,04018.4919,E,1,25,0.6,534760.16,M,14.80,M,,*44
$GPRMC,200802.00,A,3024.6780806,S,04018.4919052,E,14910.111,348.1,070124,0.0,E,A*2F
$GPVTG,348.124,T,348.124,M,14910.111,N,27613.525,K,A*2C
$GPGSA,M,3,29,12,31,10,25,28,26,32,,,,,1.1,0.6,0.9*32
$GPGSV,3,1,11,32,80,140,52,25,52,138,46,28,49,224,46,10,32,339,49*7D
$GPGSV,3,2,11,31,31,251,44,29,28,060,46,26,26,314,46,12,17,139,39*7B
$GPGSV,3,3,11,23,07,005,44,16,02,322,,03,02,214,*4A
$GPGGA,200803.00,3020.9309,S,04017.5828,E,1,25,0.6,534726.83,M,14.60,M,,*47
$GPRMC,200803.00,A,3020.9309178,S,04017.5827789,E,14910.143,348.1,070124,0.0,E,A*24
$GPVTG,348.127,T,348.127,M,14910.143,N,27613.586,K,A*22
$GPGSA,M,3,29,12,31,10,25,28,26,32,,,,,1.1,0.6,0.9*32
$GPGSV,3,1,11,32,80,140,52,25,52,138,46,28,49,224,46,10,32,339,49*7D
$GPGSV,3,2,11,31,31,251,43,29,28,060,46,26,26,314,46,12,17,139,39*7C
$GPGSV,3,3,11,23,07,005,44,16,02,322,,03,02,214,*4A
$GPGGA,200804.00,3017.1836,S,04016.6745,E,1,25,0.6,534693.42,M,14.50,M,,*4C
$GPRMC,200804.00,A,3017.1836360,S,04016.6744830,E,14910.306,348.1,070124,0.0,E,A*25
$GPGSA,M,3,29,12,31,10,25,28,26,32,,,,,1.1,0.6,0.9*32
$GPVTG,348.131,T,348.131,M,14910.306,N,27613.887,K,A*2D
$GPGSV,3,1,11,32,80,140,52,25,52,138,46,28,49,224,46,10,32,339,49*7D
$GPGSV,3,2,11,31,31,251,43,29,28,060,46,26,26,314,46,12,17,139,39*7C
$GPGSV,3,3,11,23,07,005,44,16,02,322,,03,02,214,*4A
$GPGGA,200805.00,3013.4362,S,04015.7670,E,1,25,0.6,534660.10,M,14.30,M,,*4E
$GPRMC,200805.00,A,3013.4362331,S,04015.7670209,E,14910.346,348.1,070124,0.0,E,A*2B
$GPVTG,348.134,T,348.134,M,14910.346,N,27613.960,K,A*21
$GPGSA,M,3,29,12,31,10,25,28,26,32,,,,,1.1,0.6,0.9*32
$GPGSV,3,1,11,32,80,140,52,25,52,138,46,28,49,224,46,10,32,339,49*7D
$GPGSV,3,2,11,31,31,251,43,29,28,060,46,26,26,314,46,12,17,139,39*7C
$GPGSV,3,3,11,23,07,005,44,16,02,322,,03,02,214,*4A
$GPGGA,200806.00,3009.6887,S,04014.8604,E,1,25,0.6,534626.83,M,14.10,M,,*43
$GPRMC,200806.00,A,3009.6887158,S,04014.8603663,E,14910.430,348.1,070124,0.0,E,A*28
$GPVTG,348.137,T,348.137,M,14910.430,N,27614.117,K,A*28
$GPGSA,M,3,29,12,31,10,25,28,26,32,,,,,1.1,0.6,0.9*32
$GPGSV,3,1,11,32,80,140,52,25,52,138,46,28,49,224,46,10,32,339,49*7D
$GPGSV,3,2,11,31,31,251,43,29,28,060,46,26,26,314,46,12,17,139,38*7D
$GPGSV,3,3,11,23,07,005,44,16,02,322,,03,02,214,*4A
$GPGGA,200807.00,3005.9411,S,04013.9545,E,1,25,0.6,534593.45,M,14.00,M,,*44
$GPRMC,200807.00,A,3005.9410804,S,04013.9545369,E,14910.540,348.1,070124,0.0,E,A*26
$GPVTG,348.141,T,348.141,M,14910.540,N,27614.321,K,A*29
$GPGSA,M,3,29,12,31,10,25,28,26,32,,,,,1.1,0.6,0.9*32
$GPGSV,3,1,11,32,80,140,52,25,52,138,46,28,49,224,46,10,32,339,49*7D
$GPGSV,3,2,11,31,31,251,43,29,28,060,46,26,26,314,46,12,17,139,38*7D
$GPGSV,3,3,11,23,07,005,45,16,02,322,,03,02,214,*4B
$GPGGA,200808.00,3002.1933,S,04013.0495,E,1,25,0.6,534560.17,M,13.80,M,,*48
$GPRMC,200808.00,A,3002.1933334,S,04013.0495292,E,14910.573,348.1,070124,0.0,E,A*22
$GPVTG,348.144,T,348.144,M,14910.573,N,27614.381,K,A*23
$GPGSA,M,3,29,12,31,10,25,28,26,32,,,,,1.1,0.6,0.9*32
$GPGSV,3,1,11,32,80,140,52,25,52,138,46,28,49,224,46,10,32,339,49*7D
$GPGSV,3,2,11,31,31,251,43,29,28,060,46,26,26,314,46,12,17,139,38*7D
$GPGSV,3,3,11,23,07,005,45,16,02,322,,03,02,214,*4B
$GPGGA,200809.00,2958.4455,S,04012.1453,E,1,25,0.6,534526.94,M,13.60,M,,*4B
$GPRMC,200809.00,A,2958.4454658,S,04012.1453308,E,14910.621,348.1,070124,0.0,E,A*2E
$GPGSA,M,3,29,12,31,10,25,28,26,32,,,,,1.1,0.6,0.9*32
$GPVTG,348.147,T,348.147,M,14910.621,N,27614.471,K,A*2F
$GPGSV,3,1,11,32,80,140,52,25,52,138,46,28,49,224,46,10,32,339,49*7D
$GPGSV,3,2,11,31,31,251,43,29,28,060,46,26,26,314,46,12,17,139,39*7C
$GPGSV,3,3,11,23,07,005,45,16,02,322,,03,02,214,*4B
$GPGGA,200810.00,2954.6975,S,04011.2419,E,1,25,0.6,534493.61,M,13.50,M,,*4A
$GPRMC,200810.00,A,2954.6974791,S,04011.2419487,E,14910.774,348.2,070124,0.0,E,A*2F
$GPVTG,348.151,T,348.151,M,14910.774,N,27614.754,K,A*2A
$GPGSA,M,3,29,12,31,10,25,28,26,32,,,,,1.1,0.6,0.9*32
$GPGSV,3,1,11,32,80,140,52,25,52,138,45,28,49,224,46,10,32,339,49*7E
$GPGSV,3,2,11,31,31,251,43,29,28,060,46,26,26,314,46,12,17,139,39*7C
$GPGSV,3,3,11,23,07,005,45,16,02,322,,03,02,214,*4B
$GPGGA,200811.00,2950.9494,S,04010.3394,E,1,25,0.6,534460.37,M,13.30,M,,*49
$GPRMC,200811.00,A,2950.9493816,S,04010.3393662,E,14910.833,348.2,070124,0.0,E,A*21
$GPVTG,348.154,T,348.154,M,14910.833,N,27614.863,K,A*2D
$GPGSA,M,3,29,12,31,10,25,28,26,32,,,,,1.1,0.6,0.9*32
$GPGSV,3,1,11,32,80,140,52,25,52,138,45,28,49,224,46,10,32,339,49*7E
$GPGSV,3,2,11,31,31,251,43,29,28,060,46,26,26,314,46,12,17,139,39*7C
$GPGSV,3,3,11,23,07,005,45,16,02,322,,03,02,214,*4B
$GPGGA,200812.00,2947.2012,S,04009.4376,E,1,25,0.6,534427.06,M,13.20,M,,*4E
$GPRMC,200812.00,A,2947.2011592,S,04009.4375983,E,14910.905,348.2,070124,0.0,E,A*23
$GPVTG,348.158,T,348.158,M,14910.905,N,27614.997,K,A*23
$GPGSA,M,3,29,12,31,10,25,28,26,32,,,,,1.1,0.6,0.9*32
$GPGSV,3,1,11,32,80,142,52,25,51,138,45,28,49,223,46,10,33,339,49*79
$GPGSV,3,2,11,31,31,251,43,29,28,061,46,26,27,314,46,12,16,139,39*7D
$GPGSV,3,3,11,23,08,005,45,16,03,322,,03,01,214,*46
$GPGGA,200813.00,2943.4528,S,04008.5366,E,1,25,0.6,534393.86,M,13.00,M,,*42
$GPRMC,200813.00,A,2943.4528245,S,04008.5366346,E,14910.974,348.2,070124,0.0,E,A*25
$GPVTG,348.161,T,348.161,M,14910.974,N,27615.125,K,A*25
$GPGSA,M,3,29,12,31,10,25,28,26,32,,,,,1.1,0.6,0.9*32
$GPGSV,3,1,11,32,80,142,52,25,51,138,45,28,49,223,46,10,33,339,49*79
$GPGSV,3,2,11,31,31,251,43,29,28,061,46,26,27,314,46,12,16,139,39*7D
$GPGSV,3,3,11,23,08,005,45,16,03,322,,03,01,214,*46
$GPGGA,200814.00,2939.7044,S,04007.6365,E,1,25,0.6,534360.59,M,12.90,M,,*4D
$GPRMC,200814.00,A,2939.7043706,S,04007.6364644,E,14911.053,348.2,070124,0.0,E,A*22
$GPGSA,M,3,29,12,31,10,25,28,26,32,,,,,1.1,0.6,0.9*32
$GPVTG,348.165,T,348.165,M,14911.053,N,27615.270,K,A*2B
$GPGSV,3,1,11,32,80,142,52,25,51,138,45,28,49,223,46,1PVTG,348.687,T,348.687,M,14928.600,N,27647.767,K,A*25
$GPGSA,M,3,29,10,25,28,26,23,16,32,,,,,1.2,0.7,1.0*3F
$GPGSV,3,1,10,32,61,157,47,10,50,338,46,26,43,302,36,28,36,206,33*7E
$GPGSV,3,2,10,25,32,149,44,29,32,079,50,31,27,236,,23,22,010,46*70
$GPGSV,3,3,10,16,19,319,35,18,01,024,*74
$GPGGA,201227.00,1348.2344,S,03638.8702,E,1,24,0.7,526689.30,M,-18.40,M,,*6D
$GPRMC,201227.00,A,1348.2344014,S,03638.8702470,E,14928.632,348.7,070124,0.0,E,A*2F
$GPGSA,M,3,29,10,25,28,26,23,16,32,,,,,1.2,0.7,1.0*3F
$GPVTG,348.688,T,348.688,M,14928.632,N,27647.827,K,A*2F
$GPGSV,3,1,10,32,61,157,47,10,50,338,46,26,43,302,36,28,36,206,32*7F
$GPGSV,3,2,10,25,32,149,44,29,32,079,50,31,27,236,,23,22,010,46*70
$GPGSV,3,3,10,16,19,319,35,18,01,024,*74
$GPGGA,201228.00,1344.4636,S,03638.0982,E,1,24,0.7,526662.84,M,-18.50,M,,*6D
$GPRMC,201228.00,A,1344.4636265,S,03638.0982228,E,14928.676,348.7,070124,0.0,E,A*2B
$GPVTG,348.689,T,348.689,M,14928.676,N,27647.908,K,A*23
$GPGSA,M,3,29,10,25,28,26,23,16,32,,,,,1.2,0.7,1.0*3F
$GPGSV,3,1,10,32,61,157,47,10,50,338,46,26,43,302,37,28,36,206,32*7E
$GPGSV,3,2,10,25,32,149,44,29,32,079,50,31,27,236,,23,22,010,46*70
$GPGSV,3,3,10,16,19,319,35,18,01,024,*74
$GPGGA,201229.00,1340.6928,S,03637.3265,E,1,24,0.7,526636.33,M,-18.50,M,,*69
$GPRMC,201229.00,A,1340.6927902,S,03637.3264728,E,14928.821,348.7,070124,0.0,E,A*2F
$GPGSA,M,3,29,10,25,28,26,23,16,32,,,,,1.2,0.7,1.0*3F
$GPVTG,348.690,T,348.690,M,14928.821,N,27648.177,K,A*20
$GPGSV,3,1,10,32,61,157,47,10,50,338,46,26,43,302,36,28,36,206,31*7C
$GPGSV,3,2,10,25,32,149,44,29,32,079,50,31,27,236,,23,22,010,46*70
$GPGSV,3,3,10,16,19,319,35,18,01,024,*74
$GPGGA,201230.00,1336.9219,S,03636.5550,E,1,24,0.7,526609.96,M,-18.60,M,,*60
$GPRMC,201230.00,A,1336.9218907,S,03636.5549970,E,14928.871,348.7,070124,0.0,E,A*22
$GPVTG,348.692,T,348.692,M,14928.871,N,27648.270,K,A*21
$GPGSA,M,3,29,10,25,28,26,23,16,32,,,,,1.2,0.7,1.0*3F
$GPGSV,3,1,10,32,61,157,47,10,50,338,46,26,43,302,36,28,36,206,33*7E
$GPGSV,3,2,10,25,32,149,44,29,32,079,50,31,27,236,,23,22,010,46*70
$GPGSV,3,3,10,16,19,319,35,18,01,024,*74
$GPGGA,201231.00,1333.1509,S,03635.7838,E,1,24,0.7,526583.51,M,-18.60,M,,*62
$GPRMC,201231.00,A,1333.1509355,S,03635.7837803,E,14928.943,348.7,070124,0.0,E,A*24
$GPGSA,M,3,29,10,25,28,26,23,16,32,,,,,1.2,0.7,1.0*3F
$GPVTG,348.693,T,348.693,M,14928.943,N,27648.402,K,A*22
$GPGSV,3,1,10,32,61,157,47,10,50,338,46,26,43,302,36,28,36,206,32*7F
$GPGSV,3,2,10,25,32,149,44,29,32,079,50,31,27,236,,23,22,010,46*70
$GPGSV,3,3,10,16,19,319,35,18,01,024,*74
$GPGGA,201232.00,1329.3799,S,03635.0129,E,1,24,0.7,526557.24,M,-18.70,M,,*67
$GPRMC,201232.00,A,1329.3799050,S,03635.0128575,E,14928.970,348.7,070124,0.0,E,A*2F
$GPVTG,348.694,T,348.694,M,14928.970,N,27648.452,K,A*27
$GPGSA,M,3,29,10,25,28,26,23,16,32,,,,,1.2,0.7,1.0*3F
$GPGSV,3,1,10,32,60,158,47,10,50,338,46,26,43,302,37,28,35,206,32*73
$GPGSV,3,2,10,29,32,080,50,25,31,149,44,31,27,236,,23,23,010,46*74
$GPGSV,3,3,10,16,20,319,34,18,01,024,*7F
$GPGGA,201233.00,1325.6088,S,03634.2422,E,1,24,0.7,526531.00,M,-18.80,M,,*6C
$GPRMC,201233.00,A,1325.6088230,S,03634.2421929,E,14928.989,348.7,070124,0.0,E,A*28
$GPVTG,348.695,T,348.695,M,14928.989,N,27648.487,K,A*29
$GPGSA,M,3,29,10,25,28,26,23,16,32,,,,,1.2,0.7,1.0*3F
$GPGSV,3,1,10,32,60,158,47,10,50,338,46,26,43,302,36,28,35,206,31*71
$GPGSV,3,2,10,29,32,080,50,25,31,149,44,31,27,236,,23,23,010,46*74
$GPGSV,3,3,10,16,20,319,35,18,01,024,*7E
$GPGGA,201234.00,1321.8377,S,03633.4718,E,1,24,0.7,526504.78,M,-18.90,M,,*61
$GPRMC,201234.00,A,1321.8376815,S,03633.4717832,E,14929.083,348.7,070124,0.0,E,A*24
$GPVTG,348.696,T,348.696,M,14929.083,N,27648.662,K,A*22
$GPGSA,M,3,29,10,25,28,26,23,16,32,,,,,1.2,0.7,1.0*3F
$GPGSV,3,1,10,32,60,158,47,10,50,338,46,26,43,302,36,28,35,206,32*72
$GPGSV,3,2,10,29,32,080,50,25,31,149,44,31,27,236,,23,23,010,46*74
$GPGSV,3,3,10,16,20,319,34,18,01,024,*7F
$GPGGA,201235.00,1318.0665,S,03632.7016,E,1,24,0.7,526478.55,M,-19.00,M,,*62
$GPRMC,201235.00,A,1318.0664891,S,03632.7016331,E,14929.154,348.7,070124,0.0,E,A*2A
$GPGSA,M,3,29,10,25,28,26,23,16,32,,,,,1.2,0.7,1.0*3F
$GPVTG,348.696,T,348.696,M,14929.154,N,27648.794,K,A*21
$GPGSV,3,1,10,32,60,158,47,10,50,338,46,26,43,302,37,28,35,206,32*73
$GPGSV,3,2,10,29,32,080,50,25,31,149,44,31,27,236,,23,23,010,46*74
$GPGSV,3,3,10,16,20,319,35,18,01,024,*7E
$GPGGA,201236.00,1314.2952,S,03631.9318,E,1,24,0.7,526452.50,M,-19.20,M,,*6B
$GPRMC,201236.00,A,1314.2952184,S,03631.9317559,E,14929.222,348.7,070124,0.0,E,A*25