$GPGGA,042710.00,8228.9470,S,00939.7717,E,1,25,0.6,558634.17,M,-10.40,M,,*68
$GPRMC,042710.00,A,8228.9470266,S,00939.7717249,E,14854.627,261.6,050124,0.0,E,A*24
$GPGGA,042711.00,8229.4821,S,00911.1862,E,1,25,0.6,558633.85,M,-10.60,M,,*62
$GPRMC,042711.00,A,8229.4820876,S,00911.1862009,E,14854.602,262.1,050124,0.0,E,A*2F
$GPGGA,042712.00,8229.9868,S,00842.5356,E,1,25,0.6,558633.34,M,-10.70,M,,*65
$GPRMC,042712.00,A,8229.9868171,S,00842.5355503,E,14854.608,262.6,050124,0.0,E,A*2D
$GPGGA,042713.00,8230.4611,S,00813.8234,E,1,25,0.6,558632.70,M,-10.70,M,,*6C
$GPRMC,042713.00,A,8230.4611098,S,00813.8234323,E,14854.654,263.0,050124,0.0,E,A*2A
$GPGGA,042714.00,8230.9049,S,00745.0535,E,1,25,0.6,558631.95,M,-10.70,M,,*67
$GPRMC,042714.00,A,8230.9048845,S,00745.0534571,E,14854.654,263.5,050124,0.0,E,A*25
$GPGGA,042715.00,8231.3180,S,00716.2293,E,1,25,0.6,558631.16,M,-10.70,M,,*6D
$GPRMC,042715.00,A,8231.3180353,S,00716.2293075,E,14854.643,264.0,050124,0.0,E,A*2D
$GPGGA,042716.00,8231.7005,S,00647.3547,E,1,25,0.6,558630.27,M,-10.70,M,,*6F
$GPRMC,042716.00,A,8231.7004969,S,00647.3547292,E,14854.615,264.4,050124,0.0,E,A*22
$GPGGA,042717.00,8232.0521,S,00618.4335,E,1,25,0.6,558629.21,M,-10.80,M,,*66
$GPRMC,042717.00,A,8232.0521274,S,00618.4334748,E,14854.648,264.9,050124,0.0,E,A*2A
$GPGGA,042718.00,8232.3729,S,00549.4695,E,1,25,0.6,558628.22,M,-10.80,M,,*6A
$GPRMC,042718.00,A,8232.3729418,S,00549.4694774,E,14854.665,265.4,050124,0.0,E,A*24
$GPGGA,042719.00,8232.6628,S,00520.4665,E,1,25,0.6,558627.30,M,-10.90,M,,*63
$GPRMC,042719.00,A,8232.6628500,S,00520.4664835,E,14854.595,265.8,050124,0.0,E,A*22
$GPGGA,042720.00,8232.9218,S,00451.4284,E,1,25,0.6,558626.16,M,-10.90,M,,*68
$GPRMC,042720.00,A,8232.9217702,S,00451.4283906,E,14854.589,266.3,050124,0.0,E,A*21
$GPGGA,042721.00,8233.1497,S,00422.3591,E,1,25,0.6,558625.19,M,-11.10,M,,*64
$GPRMC,042721.00,A,8233.1496526,S,00422.3590854,E,14854.636,266.8,050124,0.0,E,A*2E
$GPGGA,042722.00,8233.3465,S,00353.2625,E,1,25,0.6,558624.04,M,-11.20,M,,*6A
$GPRMC,042722.00,A,8233.3464634,S,00353.2624686,E,14854.608,267.2,050124,0.0,E,A*29
$GPGGA,042723.00,8233.5121,S,00324.1426,E,1,25,0.6,558622.84,M,-11.30,M,,*65
$GPRMC,042723.00,A,8233.5121492,S,00324.1426006,E,14854.703,267.7,050124,0.0,E,A*26
$GPRMC,200802.00,A,3024.6780806,S,04018.4919052,E,14910.111,348.1,070124,0.0,E,A*2F
$GPRMC,200803.00,A,3020.9309178,S,04017.5827789,E,14910.143,348.1,070124,0.0,E,A*24
$GPRMC,200804.00,A,3017.1836360,S,04016.6744830,E,14910.306,348.1,070124,0.0,E,A*25
$GPRMC,200805.00,A,3013.4362331,S,04015.7670209,E,14910.346,348.1,070124,0.0,E,A*2B
$GPRMC,200806.00,A,3009.6887158,S,04014.8603663,E,14910.430,348.1,070124,0.0,E,A*28
$GPRMC,200807.00,A,3005.9410804,S,04013.9545369,E,14910.540,348.1,070124,0.0,E,A*26
$GPRMC,200808.00,A,3002.1933334,S,04013.0495292,E,14910.573,348.1,070124,0.0,E,A*22
$GPRMC,200809.00,A,2958.4454658,S,04012.1453308,E,14910.621,348.1,070124,0.0,E,A*2E
$GPRMC,200810.00,A,2954.6974791,S,04011.2419487,E,14910.774,348.2,070124,0.0,E,A*2F
$GPRMC,200811.00,A,2950.9493816,S,04010.3393662,E,14910.833,348.2,070124,0.0,E,A*21
$GPRMC,200812.00,A,2947.2011592,S,04009.4375983,E,14910.905,348.2,070124,0.0,E,A*23
$GPRMC,200813.00,A,2943.4528245,S,04008.5366346,E,14910.974,348.2,070124,0.0,E,A*25
$GPRMC,200814.00,A,2939.7043706,S,04007.6364644,E,14911.053,348.2,070124,0.0,E,A*22
$GPGGA,201227.00,1348.2344,S,03638.8702,E,1,24,0.7,526689.30,M,-18.40,M,,*6D
$GPRMC,201227.00,A,1348.2344014,S,03638.8702470,E,14928.632,348.7,070124,0.0,E,A*2F
$GPGGA,201228.00,1344.4636,S,03638.0982,E,1,24,0.7,526662.84,M,-18.50,M,,*6D
$GPRMC,201228.00,A,1344.4636265,S,03638.0982228,E,14928.676,348.7,070124,0.0,E,A*2B
$GPGGA,201229.00,1340.6928,S,03637.3265,E,1,24,0.7,526636.33,M,-18.50,M,,*69
$GPRMC,201229.00,A,1340.6927902,S,03637.3264728,E,14928.821,348.7,070124,0.0,E,A*2F
$GPGGA,201230.00,1336.9219,S,03636.5550,E,1,24,0.7,526609.96,M,-18.60,M,,*60
$GPRMC,201230.00,A,1336.9218907,S,03636.5549970,E,14928.871,348.7,070124,0.0,E,A*22
$GPGGA,201231.00,1333.1509,S,03635.7838,E,1,24,0.7,526583.51,M,-18.60,M,,*62
$GPRMC,201231.00,A,1333.1509355,S,03635.7837803,E,14928.943,348.7,070124,0.0,E,A*24
$GPGGA,201232.00,1329.3799,S,03635.0129,E,1,24,0.7,526557.24,M,-18.70,M,,*67
$GPRMC,201232.00,A,1329.3799050,S,03635.0128575,E,14928.970,348.7,070124,0.0,E,A*2F
$GPGGA,201233.00,1325.6088,S,03634.2422,E,1,24,0.7,526531.00,M,-18.80,M,,*6C
$GPRMC,201233.00,A,1325.6088230,S,03634.2421929,E,14928.989,348.7,070124,0.0,E,A*28
$GPGGA,201234.00,1321.8377,S,03633.4718,E,1,24,0.7,526504.78,M,-18.90,M,,*61
$GPRMC,201234.00,A,1321.8376815,S,03633.4717832,E,14929.083,348.7,070124,0.0,E,A*24
$GPGGA,201235.00,1318.0665,S,03632.7016,E,1,24,0.7,526478.55,M,-19.00,M,,*62
$GPRMC,201235.00,A,1318.0664891,S,03632.7016331,E,14929.154,348.7,070124,0.0,E,A*2A
$GPGGA,201236.00,1314.2952,S,03631.9318,E,1,24,0.7,526452.50,M,-19.20,M,,*6B
$GPRMC,201236.00,A,1314.2952184,S,03631.9317559,E,14929.222,348.7,070124,0.0,E,A*25
