$GPRMC,120057.00,A,6709.9240584,N,13931.1990372,E,14897.104,339.1,280224,0.0,E,A*34
$GPGGA,120304.00,7428.0220,N,12903.1573,E,1,38,0.4,539073.38,M,-2.80,M,,*40
$GPRMC,120304.00,A,7428.0219760,N,12903.1573212,E,14894.291,330.2,280224,0.0,E,A*3D
$GPRMC,120509.00,A,8033.7536509,N,10450.4892770,E,14893.008,307.6,280224,0.0,E,A*3D
$GPRMC,120714.00,A,8218.4370644,N,05050.6794126,E,14893.413,255.1,280224,0.0,E,A*34
$GPRMC,120924.00,A,7726.1976944,N,01115.2081779,E,14895.558,217.1,280224,0.0,E,A*39
$GPRMC,121135.00,A,7013.1135411,N,00350.6840951,W,14899.314,203.7,280224,0.0,E,A*27
$GPRMC,121347.00,A,6222.5104812,N,01113.4168758,W,14904.436,197.9,280224,0.0,E,A*28
$GPRMC,121602.00,A,5408.4393225,N,01549.2245412,W,14910.859,194.9,280224,0.0,E,A*2D
$GPRMC,121817.00,A,4548.0705681,N,01904.1858363,W,14917.747,193.3,280224,0.0,E,A*2D
$GPRMC,122034.00,A,3716.4602484,N,02139.0693473,W,14924.693,192.3,280224,0.0,E,A*2E
$GPRMC,122300.00,A,2808.4208690,N,02357.3427313,W,14931.439,191.7,280224,0.0,E,A*26
$GPRMC,122523.00,A,1909.7082010,N,02557.2175394,W,14936.588,191.4,280224,0.0,E,A*2A
$GPRMC,141309.00,A,2843.9066037,S,05935.3842105,W,14928.745,191.8,280224,0.0,E,A*38
$GPRMC,141528.00,A,3725.3974543,S,06147.7366770,W,14921.587,192.3,280224,0.0,E,A*3B
$GPRMC,141744.00,A,4553.0095004,S,06421.8254465,W,14914.012,193.3,280224,0.0,E,A*37
$GPRMC,141958.00,A,5409.3920035,S,06735.5255282,W,14906.676,194.9,280224,0.0,E,A*32
$GPRMC,142211.00,A,6215.9206414,S,07206.2928774,W,14899.961,197.8,280224,0.0,E,A*3F
$GPGGA,142426.00,7016.9435,S,07938.4642,W,1,28,0.5,539202.47,M,-9.30,M,,*4A
$GPRMC,142426.00,A,7016.9434841,S,07938.4641543,W,14894.351,203.7,280224,0.0,E,A*35
$GPGGA,142640.00,7738.3153,S,09522.1303,W,1,29,0.5,540899.98,M,-26.30,M,,*78
$GPRMC,142640.00,A,7738.3153375,S,09522.1302529,W,14890.239,217.8,280224,0.0,E,A*3D
$GPGGA,142854.00,8225.3483,S,13755.0073,W,1,28,0.5,541856.47,M,-42.80,M,,*79
$GPRMC,142854.00,A,8225.3482985,S,13755.0073130,W,14888.074,258.7,280224,0.0,E,A*3B
$GPGGA,143109.00,7950.3426,S,16640.1585,E,1,30,0.5,542013.47,M,-51.60,M,,*60
$GPRMC,143109.00,A,7950.3425856,S,16640.1584546,E,14887.777,312.4,280224,0.0,E,A*23
$GPGGA,143322.00,7302.2302,S,14445.1999,E,1,33,0.5,541386.54,M,-51.80,M,,*61
$GPRMC,143322.00,A,7302.2302085,S,14445.1999258,E,14889.503,332.7,280224,0.0,E,A*23
$GPGGA,143526.00,6549.2839,S,13548.8934,E,1,35,0.5,540164.58,M,-39.70,M,,*69
$GPRMC,143526.00,A,6549.2838943,S,13548.8934061,E,14892.717,340.1,280224,0.0,E,A*2B
$GPGGA,143730.00,5820.3582,S,13037.4046,E,1,37,0.5,538447.74,M,-29.10,M,,*6C
$GPRMC,143730.00,A,5820.3582228,S,13037.4046190,E,14897.095,343.8,280224,0.0,E,A*24
$GPGGA,143936.00,5036.7541,S,12701.8098,E,1,35,0.5,536341.58,M,-23.40,M,,*60
$GPRMC,143936.00,A,5036.7540684,S,12701.8098234,E,14902.411,345.9,280224,0.0,E,A*28
$GPGGA,144148.00,4226.5643,S,12411.4746,E,1,35,0.5,533939.51,M,-29.30,M,,*69
$GPRMC,144148.00,A,4226.5642857,S,12411.4745934,E,14908.491,347.1,280224,0.0,E,A*25
$GPRMC,144403.00,A,3402.1655512,S,12150.0079961,E,14914.799,347.9,280224,0.0,E,A*24
$GPGGA,144620.00,2528.0992,S,11946.2700,E,1,41,0.4,529184.13,M,-11.50,M,,*6D
$GPRMC,144620.00,A,2528.0992013,S,11946.2700128,E,14920.524,348.4,280224,0.0,E,A*2D
$GPGGA,144833.00,1707.5585,S,11757.5657,E,1,39,0.4,527382.47,M,-0.80,M,,*51
$GPRMC,144833.00,A,1707.5584551,S,11757.5656778,E,14925.000,348.6,280224,0.0,E,A*2C
$GPRMC,145035.00,A,0927.5620911,S,11623.6183030,E,14927.902,348.8,280224,0.0,E,A*29
$GPRMC,145246.00,A,0113.1396682,S,11445.7401332,E,14929.405,348.8,280224,0.0,E,A*20
$GPRMC,145457.00,A,0701.3733222,N,11308.2551116,E,14929.179,348.8,280224,0.0,E,A*3C
$GPRMC,145708.00,A,1515.5442551,N,11128.4463480,E,14927.200,348.7,280224,0.0,E,A*33
$GPGGA,145915.00,2313.8874,N,10946.5246,E,1,41,0.4,527693.19,M,-19.90,M,,*77
$GPRMC,145915.00,A,2313.8874102,N,10946.5245930,E,14923.917,348.5,280224,0.0,E,A*3B
$GPGGA,150120.00,3103.5709,N,10757.5745,E,1,35,0.5,529381.47,M,-35.30,M,,*7A
$GPRMC,150120.00,A,3103.5709349,N,10757.5745470,E,14919.600,348.1,280224,0.0,E,A*30
$GPGGA,150335.00,3929.0265,N,10544.1108,E,1,32,0.6,531506.15,M,-43.10,M,,*7D
$GPRMC,150335.00,A,3929.0264666,N,10544.1108432,E,14914.084,347.5,280224,0.0,E,A*34
$GPGGA,150552.00,4759.2282,N,10300.5728,E,1,31,0.5,533768.51,M,-43.20,M,,*72
$GPRMC,150552.00,A,4759.2282271,N,10300.5728470,E,14908.244,346.4,280224,0.0,E,A*36
$GPGGA,150804.00,5606.8095,N,09935.3520,E,1,34,0.5,535837.64,M,-40.30,M,,*72
$GPRMC,150804.00,A,5606.8094543,N,09935.3520335,E,14902.882,344.5,280224,0.0,E,A*3C
$GPGGA,151015.00,6403.9174,N,09441.2832,E,1,33,0.5,537575.99,M,-27.30,M,,*7C
$GPRMC,151015.00,A,6403.9174424,N,09441.2832191,E,14898.338,341.2,280224,0.0,E,A*38
$GPGGA,151215.00,7108.5905,N,08718.0147,E,1,32,0.5,538754.21,M,-14.10,M,,*7A
$GPRMC,151215.00,A,7108.5905113,N,08718.0147500,E,14895.194,335.3,280224,0.0,E,A*36
$GPGGA,151417.00,7747.1301,N,07212.4733,E,1,32,0.5,539437.62,M,-1.50,M,,*48
$GPRMC,151417.00,A,7747.1301084,N,07212.4732932,E,14893.354,321.7,280224,0.0,E,A*3E
$GPRMC,151627.00,A,8224.6840983,N,03039.7339913,E,14892.942,281.8,280224,0.0,E,A*3F
$GPRMC,151840.00,A,7957.7699975,N,02427.2357808,W,14894.425,228.3,280224,0.0,E,A*2E
$GPRMC,152052.00,A,7314.9438266,N,04645.8596373,W,14897.627,207.6,280224,0.0,E,A*28
$GPRMC,152305.00,A,6529.9992827,N,05621.5591016,W,14902.304,199.7,280224,0.0,E,A*27
$GPRMC,152517.00,A,5730.6876892,N,06142.9945339,W,14908.229,195.9,280224,0.0,E,A*21
$GPGGA,152733.00,4908.7116,N,06525.5421,W,1,26,0.5,530463.30,M,-20.00,M,,*67
$GPRMC,152733.00,A,4908.7115593,N,06525.5420878,W,14915.080,193.8,280224,0.0,E,A*23
$GPGGA,152952.00,4030.9268,N,06816.6504,W,1,24,0.5,527574.74,M,-31.30,M,,*60
$GPRMC,152952.00,A,4030.9267513,N,06816.6504080,W,14922.200,192.6,280224,0.0,E,A*2F
$GPGGA,153210.00,3153.8277,N,07035.6515,W,1,22,0.6,524901.26,M,-50.70,M,,*64
$GPRMC,153210.00,A,3153.8276988,N,07035.6514938,W,14928.922,191.9,280224,0.0,E,A*21
$GPGGA,153429.00,2310.8762,N,07237.5920,W,1,24,0.5,522616.70,M,-45.30,M,,*6D
$GPRMC,153429.00,A,2310.8762118,N,07237.5919887,W,14934.579,191.5,280224,0.0,E,A*2C
$GPGGA,153644.00,1441.5917,N,07425.7843,W,1,22,0.5,520994.67,M,-19.50,M,,*6E
$GPRMC,153644.00,A,1441.5917032,N,07425.7842955,W,14938.673,191.3,280224,0.0,E,A*28
$GPRMC,153900.00,A,0607.6980998,N,07609.1783718,W,14940.904,191.2,280224,0.0,E,A*2C
$GPRMC,154112.00,A,0211.4028686,S,07747.4139604,W,14940.969,191.2,280224,0.0,E,A*39
$GPRMC,154325.00,A,1034.1362773,S,07927.1301828,W,14938.995,191.2,280224,0.0,E,A*30
$GPRMC,154539.00,A,1900.0231545,S,08111.3458383,W,14935.202,191.4,280224,0.0,E,A*3B
$GPRMC,154749.00,A,2709.7408263,S,08259.5698168,W,14929.888,191.7,280224,0.0,E,A*34
$GPRMC,155000.00,A,3521.6520242,S,08500.6480401,W,14923.341,192.2,280224,0.0,E,A*34
$GPRMC,155212.00,A,4335.0807262,S,08722.7711430,W,14916.108,193.0,280224,0.0,E,A*3D
$GPGGA,155416.00,5115.6891,S,09007.1813,W,1,22,0.6,533088.83,M,-4.60,M,,*45
$GPRMC,155416.00,A,5115.6890925,S,09007.1813070,W,14909.208,194.2,280224,0.0,E,A*3C
$GPGGA,155623.00,5902.9069,S,09351.0489,W,1,26,0.5,535830.53,M,-12.30,M,,*74
$GPRMC,155623.00,A,5902.9068909,S,09351.0488912,W,14902.516,196.4,280224,0.0,E,A*3D
$GPGGA,155831.00,6645.4295,S,09929.8177,W,1,29,0.5,538255.55,M,-24.50,M,,*7D
$GPRMC,155831.00,A,6645.4295336,S,09929.8177243,W,14896.643,200.5,280224,0.0,E,A*31
$GPRMC,160033.00,A,7348.5541645,S,10900.5837102,W,14892.186,208.6,280224,0.0,E,A*3E
$GPGGA,160235.00,7957.6287,S,13014.8980,W,1,29,0.5,541367.23,M,-41.70,M,,*7B
$GPRMC,160235.00,A,7957.6287339,S,13014.8979919,W,14889.161,228.3,280224,0.0,E,A*31
$GPGGA,162756.00,0054.4855,S,09055.7354,E,1,39,0.4,525713.22,M,-59.00,M,,*69
$GPRMC,162756.00,A,0054.4855121,S,09055.7354370,E,14929.170,348.8,280224,0.0,E,A*26
$GPGGA,163007.00,0720.0111,N,08918.2294,E,1,39,0.4,525817.55,M,-65.10,M,,*73
$GPRMC,163007.00,A,0720.0111372,N,08918.2294309,E,14928.814,348.8,280224,0.0,E,A*39
$GPGGA,163220.00,1541.6885,N,08736.7337,E,1,38,0.4,526606.01,M,-73.40,M,,*72
$GPRMC,163220.00,A,1541.6885231,N,08736.7336680,E,14926.812,348.7,280224,0.0,E,A*33
$GPGGA,163438.00,2421.3452,N,08545.2314,E,1,37,0.4,528032.94,M,-57.60,M,,*70
$GPRMC,163438.00,A,2421.3451530,N,08545.2314207,E,14923.109,348.4,280224,0.0,E,A*33
$GPRMC,163658.00,A,3307.0565941,N,08340.5677944,E,14917.993,348.0,280224,0.0,E,A*3A
$GPGGA,163916.00,4143.1265,N,08118.3567,E,1,38,0.5,532217.52,M,-52.40,M,,*74
$GPRMC,163916.00,A,4143.1265379,N,08118.3567183,E,14912.298,347.2,280224,0.0,E,A*3D
$GPGGA,164129.00,4957.5746,N,07830.1410,E,1,35,0.5,534404.94,M,-42.90,M,,*7C
$GPRMC,164129.00,A,4957.5745663,N,07830.1410398,E,14906.647,346.0,280224,0.0,E,A*39
$GPGGA,164341.00,5803.8506,N,07448.3814,E,1,34,0.5,536410.66,M,-29.10,M,,*7D
$GPRMC,164341.00,A,5803.8505945,N,07448.3814017,E,14901.474,343.9,280224,0.0,E,A*30
$GPGGA,164552.00,6558.4621,N,06919.8350,E,1,29,0.5,538045.76,M,-12.80,M,,*7D
$GPRMC,164552.00,A,6558.4620818,N,06919.8349723,E,14897.183,340.0,280224,0.0,E,A*3C
$GPRMC,164805.00,A,7341.3882397,N,05919.7846996,E,14894.079,331.7,280224,0.0,E,A*3F
$GPRMC,165020.00,A,8024.3810144,N,03446.3941619,E,14892.705,308.8,280224,0.0,E,A*3D
$GPRMC,165231.00,A,8216.7843716,N,02120.8883779,W,14893.160,254.3,280224,0.0,E,A*2D
$GPRMC,165437.00,A,7732.6809794,N,05942.4103583,W,14895.265,217.5,280224,0.0,E,A*24
$GPGGA,165640.00,7048.2890,N,07423.5323,W,1,30,0.5,537099.97,M,-1.40,M,,*52
$GPRMC,165640.00,A,7048.2890225,N,07423.5323014,W,14898.745,204.3,280224,0.0,E,A*2B
$GPGGA,165840.00,6342.5058,N,08134.7818,W,1,28,0.6,535232.57,M,-35.80,M,,*6E
$GPRMC,165840.00,A,6342.5057828,N,08134.7817716,W,14903.302,198.6,280224,0.0,E,A*2E
$GPGGA,170040.00,5625.0532,N,08603.2569,W,1,26,0.6,532991.38,M,-48.00,M,,*64
$GPRMC,170040.00,A,5625.0531934,N,08603.2569371,W,14908.872,195.6,280224,0.0,E,A*24
$GPGGA,170250.00,4824.6230,N,08928.2789,W,1,27,0.5,530303.92,M,-35.70,M,,*6C
$GPRMC,170250.00,A,4824.6230371,N,08928.2788898,W,14915.448,193.7,280224,0.0,E,A*2B
$GPGGA,170504.00,4005.2283,N,09210.5357,W,1,27,0.5,527502.31,M,-33.10,M,,*64
$GPRMC,170504.00,A,4005.2283432,N,09210.5356706,W,14922.401,192.6,280224,0.0,E,A*2A
$GPGGA,170716.00,3150.5494,N,09422.8277,W,1,25,0.5,524918.78,M,-27.60,M,,*64
$GPRMC,170716.00,A,3150.5494194,N,09422.8277226,W,14928.829,191.9,280224,0.0,E,A*2C
$GPGGA,170924.00,2349.0379,N,09615.4931,W,1,21,0.6,522788.06,M,-26.50,M,,*6F
$GPRMC,170924.00,A,2349.0378547,N,09615.4930848,W,14934.196,191.6,280224,0.0,E,A*2D
$GPGGA,171138.00,1523.6153,N,09803.4744,W,1,24,0.5,521119.56,M,-10.90,M,,*6C
$GPRMC,171138.00,A,1523.6152942,N,09803.4744129,W,14938.362,191.3,280224,0.0,E,A*2F
$GPGGA,171351.00,0701.1136,N,09944.9310,W,1,24,0.5,520200.81,M,-11.50,M,,*61
$GPRMC,171351.00,A,0701.1135600,N,09944.9310473,W,14940.678,191.2,280224,0.0,E,A*2E
$GPGGA,171559.00,0102.8506,S,10120.2712,W,1,23,0.6,520081.05,M,-15.10,M,,*75
$GPRMC,171559.00,A,0102.8505974,S,10120.2711916,W,14940.994,191.2,280224,0.0,E,A*35
$GPGGA,171804.00,0855.4022,S,10253.6677,W,1,23,0.5,520694.66,M,-11.80,M,,*7C
$GPRMC,171804.00,A,0855.4021744,S,10253.6677331,W,14939.565,191.2,280224,0.0,E,A*38
$GPGGA,172014.00,1706.3593,S,10433.7226,W,1,23,0.6,522061.68,M,-3.50,M,,*4A
$GPRMC,172014.00,A,1706.3592805,S,10433.7225966,W,14936.191,191.4,280224,0.0,E,A*36
$GPGGA,172225.00,2520.1337,S,10620.7946,W,1,22,0.6,524109.02,M,-3.70,M,,*4E
$GPRMC,172225.00,A,2520.1337094,S,10620.7945752,W,14931.277,191.6,280224,0.0,E,A*32
$GPGGA,172439.00,3343.7027,S,10821.5178,W,1,20,0.7,526731.38,M,-9.00,M,,*43
$GPRMC,172439.00,A,3343.7026534,S,10821.5177521,W,14924.880,192.1,280224,0.0,E,A*31
$GPRMC,172655.00,A,4212.5733079,S,11043.3346137,W,14917.480,192.8,280224,0.0,E,A*3B
$GPRMC,074624.00,A,5607.9260986,S,02959.7720833,E,14904.712,195.5,290224,0.0,E,A*23
$GPRMC,083103.00,A,4520.3351093,N,15732.8261784,W,14911.043,346.8,290224,0.0,E,A*2A
$GPRMC,092050.00,A,5345.2561961,S,00720.5724282,E,14906.583,194.8,290224,0.0,E,A*29
$GPGGA,100452.00,4037.9732,N,17950.7424,W,1,27,0.5,531336.21,M,-12.10,M,,*61
$GPRMC,100452.00,A,4037.9732133,N,17950.7424222,W,14914.205,347.3,290224,0.0,E,A*24
$GPRMC,105505.00,A,5041.4634769,S,01508.4066918,W,14909.601,194.1,290224,0.0,E,A*3B
$GPRMC,113827.00,A,3502.4457692,N,15756.0882721,E,14917.689,347.8,290224,0.0,E,A*3C
$GPGGA,122345.00,2643.6625,S,03154.5306,W,1,15,0.9,524291.04,M,-3.10,M,,*48
$GPRMC,122345.00,A,2643.6625031,S,03154.5305750,W,14930.510,191.7,290224,0.0,E,A*37